     2.11           OBSERVATION DATA    M (MIXED)           RINEX VERSION / TYPE
trigPPpart2         COSMIC CDAAC        21-JAN-22 08:57     PGM / RUN BY / DATE 
gfzrnx-1.13-7761    FILE PROCESSING     20231114 042800 UTC COMMENT             
C211                                                        MARKER NAME         
FORMOSAT7/COSMIC-2E NSPO/UCAR                               OBSERVER / AGENCY   
                    BLACKJACK                               REC # / TYPE / VERS 
                    COSMIC-2 (-X POD)                       ANT # / TYPE        
        0.0000        0.0000        0.0000                  ANTENNA: DELTA H/E/N
        0.0000        0.0000        0.0000                  APPROX POSITION XYZ 
     7    C1    C2    L1    L2    P2    S1    S2            # / TYPES OF OBSERV 
     1     1                                                WAVELENGTH FACT L1/2
    50                                                      # OF SATELLITES     
   G01   551   551   551   551         551   551            PRN / # OF OBS      
   G02   597         597   597   597   597   597            PRN / # OF OBS      
   G03   582   582   582   582         582   582            PRN / # OF OBS      
   G04   667   667   667   667         667   667            PRN / # OF OBS      
   G05   492   492   492   492         492   492            PRN / # OF OBS      
   G06   620   620   620   620         620   620            PRN / # OF OBS      
   G07   613   613   613   613         613   613            PRN / # OF OBS      
   G08   674   674   674   674         674   674            PRN / # OF OBS      
   G09   632   632   632   632         632   632            PRN / # OF OBS      
   G10   671   671   671   671         671   671            PRN / # OF OBS      
   G11   574   574   574   574         574   574            PRN / # OF OBS      
   G12   714   714   714   714         714   714            PRN / # OF OBS      
   G13   583         583   583   583   583   583            PRN / # OF OBS      
   G14   587   587   587   587         587   587            PRN / # OF OBS      
   G15   619   619   619   619         619   619            PRN / # OF OBS      
   G16   731         731   731   731   731   731            PRN / # OF OBS      
   G17   580   580   580   580         580   580            PRN / # OF OBS      
   G18   698   698   698   698         698   698            PRN / # OF OBS      
   G19   590         590   590   590   590   590            PRN / # OF OBS      
   G20   436         436   436   436   436   436            PRN / # OF OBS      
   G21   573         573   573   573   573   573            PRN / # OF OBS      
   G23   635   635   635   635         635   635            PRN / # OF OBS      
   G24   685   685   685   685         685   685            PRN / # OF OBS      
   G25   758   758   758   758         758   758            PRN / # OF OBS      
   G26   772   772   772   772         772   772            PRN / # OF OBS      
   G27   723   723   723   723         723   723            PRN / # OF OBS      
   G29   768   768   768   768         768   768            PRN / # OF OBS      
   G30   588   588   588   588         588   588            PRN / # OF OBS      
   G31   771   771   771   771         771   771            PRN / # OF OBS      
   G32   749   749   749   749         749   749            PRN / # OF OBS      
   R01   402   402   402   402         402   402            PRN / # OF OBS      
   R02   446   446   446   446         446   446            PRN / # OF OBS      
   R03   541   541   541   541         541   541            PRN / # OF OBS      
   R04   561   561   561   561         561   561            PRN / # OF OBS      
   R05   525   525   525   525         525   525            PRN / # OF OBS      
   R07   322   322   322   322         322   322            PRN / # OF OBS      
   R08   269   269   269   269         269   269            PRN / # OF OBS      
   R09   617   617   617   617         617   617            PRN / # OF OBS      
   R11   573   573   573   573         573   573            PRN / # OF OBS      
   R12   438   438   438   438         438   438            PRN / # OF OBS      
   R13   473   473   473   473         473   473            PRN / # OF OBS      
   R14   499   499   499   499         499   499            PRN / # OF OBS      
   R15   641   641   641   641         641   641            PRN / # OF OBS      
   R17   611   611   611   611         611   611            PRN / # OF OBS      
   R18   508   508   508   508         508   508            PRN / # OF OBS      
   R19   395   395   395   395         395   395            PRN / # OF OBS      
   R20   365   365   365   365         365   365            PRN / # OF OBS      
   R21   273   273   273   273         273   273            PRN / # OF OBS      
   R22   391   391   391   391         391   391            PRN / # OF OBS      
   R24   447   447   447   447         447   447            PRN / # OF OBS      
    30.000                                                  INTERVAL            
  2022     1    20     0     0    0.0000000     GPS         TIME OF FIRST OBS   
  2022     1    20    23    59   30.0000000     GPS         TIME OF LAST OBS    
                                                            END OF HEADER      
 22 01 20 00 00 00.0000000  0 10G04G16G26G27G31G32R04R05R15R18      
  28536400.704    28536406.789    29618566.095    23231403.514                  
       184.000         191.000  
  27773049.837                    39807538.283    31018843.913    27773052.723  
       352.000          92.000  
  24251280.831    24251283.981    18846488.315    14836700.369                  
       446.000         406.000  
  26443798.036    26443800.485    24783844.640    19464549.976                  
       399.000         408.000  
  21254737.730    21254737.291     7794118.370     6226275.053                  
       725.000         438.000  
  24478328.116    24478330.755     9423959.852     7492294.583                  
       336.000         262.000  
  26006274.194    26006279.312    19207506.427    14939164.591                  
       271.000         184.000  
  26968051.470    26968061.945    38205344.831    29715252.905                  
       535.000         325.000  
  21444743.929    21444749.231     5301856.177     4123671.879                  
       563.000         347.000  
  21164728.892    21164735.617     4933687.737     3837315.644                  
       574.000         389.000  
 22 01 20 00 00 30.0000000  0  9G16G26G27G31G32R04R05R15R18         
  27961335.366                    40796955.217    31789810.632    27961340.254  
       344.000          87.000  
  24414359.087    24414362.758    19703469.874    15504477.908                  
       434.000         402.000  
  26613533.922    26613536.937    25675809.711    20159586.887                  
       396.000         400.000  
  21397193.761    21397193.127     8542728.436     6809607.447                  
       742.000         452.000  
  24588486.025    24588488.882    10002843.262     7943372.310                  
       335.000         260.000  
  26091428.205    26091434.693    19663500.429    15293825.039                  
       270.000         178.000  
  27158897.263    27158907.506    39225523.399    30508724.801                  
       522.000         313.000  
  21543623.316    21543629.404     5830240.079     4534636.994                  
       562.000         351.000  
  21279107.102    21279114.069     5544246.389     4312194.415                  
       596.000         400.000  
 22 01 20 00 01 00.0000000  0  9G16G18G26G27G31G32R04R15R18         
  28148061.012                    41778161.963    32554376.500    28148068.054  
       337.000          74.000  
  19555998.473    19555998.590       86801.298      220486.654                  
       254.000         289.000  
  24578716.329    24578719.454    20567169.485    16177490.273                  
       423.000         398.000  
  26783749.594    26783753.356    26570295.876    20856588.075                  
       388.000         391.000  
  21544761.959    21544761.715     9318204.691     7413874.525                  
       747.000         466.000  
  24699770.541    24699773.235    10587644.416     8399061.276                  
       335.000         260.000  
  26174812.597    26174818.430    20110005.470    15641104.379                  
       265.000         176.000  
  21646437.441    21646443.315     6379646.548     4961953.013                  
       560.000         352.000  
  21399289.103    21399295.712     6185784.550     4811168.378                  
       625.000         410.000  
 22 01 20 00 01 30.0000000  0  9G16G18G26G27G31G32R04R15R18         
  28333096.082                    42750508.478    33312044.723    28333104.281  
       331.000          70.000  
  19576763.975    19576764.804      195926.771      305519.418                  
       265.000         300.000  
  24744195.916    24744199.160    21436770.020    16855100.684                  
       410.000         399.000  
  26954293.665    26954297.736    27466506.565    21554932.738                  
       379.000         383.000  
  21697213.893    21697213.371    10119343.735     8038138.559                  
       751.000         475.000  
  24812048.255    24812051.430    11177668.080     8858819.760                  
       331.000         257.000  
  26256360.765    26256368.476    20546684.381    15980740.251                  
       263.000         174.000  
  21753072.304    21753078.229     6949468.478     5405147.695                  
       560.000         357.000  
  21525087.675    21525094.393     6857305.797     5333462.509                  
       653.000         419.000  
 22 01 20 00 02 00.0000000  0 10G16G18G26G27G31G32R04R15R17R18      
  28516314.380                    43713352.279    34062319.139    28516320.576  
       328.000          65.000  
  19606953.395    19606954.284      354572.660      429139.599                  
       277.000         310.000  
  24910645.276    24910648.960    22311467.934    17536683.147                  
       399.000         391.000  
  27125016.601    27125020.843    28363653.676    22254006.704                  
       367.000         375.000  
  21854317.442    21854316.988    10944928.980     8681451.657                  
       758.000         486.000  
  24925190.105    24925193.079    11772231.408     9322115.657                  
       328.000         258.000  
  26336017.863    26336027.086    20973221.675    16312486.925                  
       259.000         168.000  
  21863410.275    21863415.309     7539080.718     5863734.824                  
       550.000         358.000  
  19749658.718    19749662.857      472792.164      367731.571                  
       868.000         433.000  
  21656308.988    21656315.496     7557772.403     5878269.688                  
       669.000         431.000  
 22 01 20 00 02 30.0000000  0 11G16G18G26G27G29G31G32R04R15R17R18   
  28697599.544                    44666040.659    34804680.427    28697604.838  
       321.000          61.000  
  19646500.020    19646500.431      562390.762      591075.769                  
       294.000         323.000  
  25077914.605    25077918.629    23190472.730    18221621.534                  
       388.000         387.000  
  27295769.818    27295774.392    29260957.395    22953202.012                  
       354.000         365.000  
  22436548.375    22436548.691      147741.466      265147.578                  
       228.000         163.000  
  22015839.599    22015839.294    11793733.738     9342857.880                  
       766.000         492.000  
  25039068.384    25039071.436    12370664.810     9788427.188                  
       323.000         256.000  
  26413725.478    26413735.161    21389323.775    16636115.857                  
       253.000         166.000  
  21977331.986    21977336.941     8147841.153     6337215.005                  
       546.000         360.000  
  19894873.320    19894877.406     1249862.474      972119.508                  
       917.000         458.000  
  21792751.643    21792757.823     8286109.245     6444753.718                  
       678.000         438.000  
 22 01 20 00 03 00.0000000  0 12G16G18G26G27G29G31G32R04R15R17R18R24
  28876838.938                    45607971.653    35538657.943    28876842.973  
       302.000          55.000  
  19695314.275    19695314.811      818911.285      790961.874                  
       312.000         334.000  
  25245856.178    25245859.501    24073007.632    18909310.543                  
       376.000         384.000  
  27466406.366    27466412.302    30157646.135    23651916.835                  
       344.000         354.000  
  22481634.217    22481634.633      384670.120      449767.233                  
       233.000         167.000  
  22181545.829    22181545.568    12664524.742    10021396.144                  
       774.000         498.000  
  25153557.908    25153560.965    12972312.222    10257243.145                  
       327.000         251.000  
  26489435.776    26489446.234    21794719.470    16951416.381                  
       249.000         162.000  
  22094713.027    22094719.327     8775091.969     6825076.584                  
       542.000         363.000  
  20046220.888    20046225.430     2059756.277     1602036.804                  
       947.000         477.000  
  21934206.780    21934213.810     9041208.228     7032052.749                  
       681.000         442.000  
  22141785.021    22141790.633      117048.801       91038.265                  
       276.000         148.000  
 22 01 20 00 03 30.0000000  0 11G18G26G27G29G31G32R04R15R17R18R24   
  19753284.589    19753284.677     1123546.579     1028339.975                  
       336.000         349.000  
  25414323.976    25414328.119    24958310.502    19599156.410                  
       369.000         378.000  
  27636782.932    27636790.328    31052956.318    24349554.721                  
       342.000         347.000  
  22530831.834    22530833.081      643205.716      651223.490                  
       237.000         171.000  
  22351200.737    22351200.379    13556066.112    10716103.505                  
       789.000         503.000  
  25268537.556    25268540.973    13576531.854    10728063.394                  
       326.000         250.000  
  26563100.407    26563112.710    22189162.777    17258199.112                  
       245.000         159.000  
  22215429.113    22215435.201     9420161.999     7326797.577                  
       542.000         366.000  
  20203394.490    20203398.990     2900822.340     2256199.123                  
       962.000         506.000  
  22080462.853    22080470.017     9821932.626     7639282.651                  
       676.000         449.000  
  22199273.067    22199277.717      424465.689      330140.188                  
       281.000         151.000  
 22 01 20 00 04 00.0000000  0 11G18G26G27G29G31G32R04R15R17R18R24   
  19820277.200    19820277.830     1475595.692     1302663.920                  
       363.000         360.000  
  25583176.390    25583180.775    25845633.221    20290576.055                  
       357.000         376.000  
  27806757.391    27806766.889    31946134.822    25045527.646                  
       337.000         339.000  
  22584043.487    22584044.289      922834.479      869116.004                  
       245.000         175.000  
  22524569.015    22524568.538    14467122.238    11426017.242                  
       798.000         505.000  
  25383887.073    25383890.672    14182696.847    11200399.490                  
       321.000         249.000  
  26634675.233    26634689.607    22572426.997    17556288.851                  
       241.000         158.000  
  22339351.769    22339358.148    10082367.436     7841846.098                  
       544.000         370.000  
  20366081.885    20366086.179     3771393.507     2933309.889                  
       977.000         526.000  
  22231301.981    22231308.722    10627120.552     8265539.739                  
       672.000         454.000  
  22260126.227    22260131.213      749874.442      583235.864                  
       283.000         155.000  
 22 01 20 00 04 30.0000000  0 11G18G26G27G29G31G32R04R15R17R18R24   
  19896138.495    19896139.010     1874248.622     1613302.493                  
       389.000         376.000  
  25752273.910    25752278.039    26734242.241    20982997.877                  
       349.000         368.000  
  27976185.207    27976196.603    32836454.576    25739275.999                  
       332.000         331.000  
  22641167.840    22641168.019     1223022.394     1103028.670                  
       249.000         179.000  
  22701416.037    22701415.775    15396459.244    12150175.814                  
       795.000         508.000  
  25499489.989    25499493.868    14790195.113    11673774.451                  
       321.000         245.000  
  26704122.231    26704138.108    22944305.655    17845525.698                  
       234.000         152.000  
  22466351.769    22466358.055    10761013.835     8369682.031                  
       547.000         373.000  
  20533968.990    20533973.696     4669792.559     3632064.600                  
       984.000         543.000  
  22386502.146    22386509.095    11455589.008     8909903.900                  
       667.000         457.000  
  22324203.576    22324207.734     1092523.758      849740.811                  
       285.000         157.000  
 22 01 20 00 05 00.0000000  0 11G18G26G27G29G31G32R04R15R17R18R24   
  19980694.530    19980695.089     2318592.830     1959544.664                  
       412.000         390.000  
  25921478.960    25921483.429    27623418.894    21675861.914                  
       343.000         367.000  
  28144923.795    28144934.396    33723203.797    26430254.435                  
       324.000         327.000  
  22702098.392    22702098.896     1543215.639     1352529.817                  
       253.000         182.000  
  22881508.208    22881507.726    16342848.980    12887622.179                  
       781.000         509.000  
  25615233.731    25615237.743    15398430.149    12147723.460                  
       314.000         243.000  
  26771406.484    26771421.428    23304610.702    18125762.813                  
       230.000         151.000  
  22596296.079    22596302.240    11455397.147     8909757.768                  
       548.000         379.000  
  20706741.901    20706747.628     5594337.588     4351155.075                  
       995.000         562.000  
  22545838.417    22545845.456    12306137.290     9571441.252                  
       666.000         457.000  
  22391361.871    22391367.630     1451651.135     1129062.035                  
       283.000         158.000  
 22 01 20 00 05 30.0000000  0 11G18G26G27G29G31G32R04R15R17R18R24   
  20073753.203    20073753.563     2807619.226     2340604.145                  
       435.000         403.000  
  26090658.675    26090663.063    28512459.227    22368619.589                  
       332.000         363.000  
  28312841.033    28312850.298    34605640.627    27117873.685                  
       311.000         318.000  
  22766727.286    22766727.720     1882843.301     1617174.686                  
       256.000         183.000  
  23064613.012    23064612.630    17305070.587    13637405.058                  
       764.000         506.000  
  25731007.021    25731010.585    16006821.218    12621793.979                  
       314.000         244.000  
  26836498.829    26836512.962    23653173.489    18396867.729                  
       227.000         149.000  
  22729052.630    22729057.838    12164805.434     9461519.619                  
       551.000         383.000  
  20884088.301    20884092.799     6543348.579     5089274.603                  
      1013.000         574.000  
  22709084.115    22709091.050    13177550.927    10249207.200                  
       666.000         454.000  
  22461458.174    22461463.674     1826483.219     1420597.858                  
       284.000         161.000  
 22 01 20 00 06 00.0000000  0 11G18G26G27G29G31G32R04R15R17R18R24   
  20175105.342    20175105.735     3340228.629     2755624.349                  
       458.000         414.000  
  26259681.366    26259686.293    29400673.939    23060733.637                  
       322.000         357.000  
  28479802.778    28479809.994    35483056.413    27801581.225                  
       299.000         316.000  
  22834942.942    22834943.451     2241318.203     1896505.466                  
       264.000         187.000  
  23250500.138    23250500.074    18281913.076    14398580.802                  
       744.000         507.000  
  25846702.577    25846706.657    16614803.526    13095545.875                  
       313.000         240.000  
  26899369.148    26899383.697    23989848.058    18658726.883                  
       222.000         145.000  
  22864485.197    22864491.993    12888519.792    10024408.344                  
       552.000         386.000  
  21065692.596    21065697.873     7515151.456     5845121.138                  
      1036.000         585.000  
  22876008.297    22876015.008    14068604.417    10942248.553                  
       667.000         453.000  
  22534344.429    22534351.064     2216239.187     1723741.154                  
       284.000         162.000  
 22 01 20 00 06 30.0000000  0 11G18G26G27G29G31G32R04R15R17R18R24   
  20284526.332    20284526.659     3915239.192     3203684.397                  
       481.000         434.000  
  26428418.470    26428424.406    30287388.621    23751678.451                  
       318.000         353.000  
  28645808.847    28645816.084    36355432.692    28481356.837                  
       137.000         148.000  
  22906631.053    22906631.325     2618039.851     2190054.472                  
       271.000         192.000  
  23438941.421    23438941.040    19272176.379    15170214.244                  
       734.000         505.000  
  25962216.401    25962220.109    17221828.184    13568551.341                  
       306.000         240.000  
  26959996.843    26960009.662    24314507.165    18911240.330                  
       217.000         143.000  
  23002461.007    23002466.750    13625815.682    10597860.382                  
       555.000         390.000  
  21251245.567    21251250.082     8508082.388     6617400.545                  
      1054.000         592.000  
  23046381.086    23046388.215    14978064.423    11649606.010                  
       665.000         452.000  
  22609874.552    22609880.429     2620132.345     2037880.006                  
       283.000         166.000  
 22 01 20 00 07 00.0000000  0 10G18G26G29G31G32R04R15R17R18R24      
  20401776.813    20401777.703     4531393.585     3683804.528                  
       507.000         456.000  
  26596745.771    26596751.637    31171943.720    24440939.918                  
       309.000         354.000  
  22981674.950    22981674.895     3012395.694     2497344.610                  
       277.000         201.000  
  23629710.311    23629710.414    20274673.701    15951380.618                  
       721.000         505.000  
  26077446.601    26077450.575    17827362.833    14040395.509                  
       300.000         247.000  
  27018360.719    27018373.563    24627044.836    19154325.552                  
       215.000         140.000  
  23142841.646    23142847.654    14375964.846    11181309.279                  
       554.000         392.000  
  21440438.430    21440443.956     9520492.862     7404830.637                  
      1061.000         600.000  
  23219970.257    23219977.353    15904693.683    12370317.238                  
       663.000         453.000  
  22687900.963    22687905.836     3037372.523     2362399.918                  
       288.000         165.000  
 22 01 20 00 07 30.0000000  0 10G18G26G29G31G32R04R15R17R18R24      
  20526604.118    20526604.702     5187366.619     4194952.247                  
       526.000         475.000  
  26764539.718    26764546.568    32053694.435    25128015.401                  
       303.000         347.000  
  23059955.147    23059955.709     3423761.680     2817889.494                  
       281.000         205.000  
  23822584.844    23822584.792    21288233.196    16741166.815                  
       713.000         500.000  
  26192295.167    26192299.663    18430891.505    14510676.285                  
       297.000         244.000  
  27074444.681    27074460.017    24927376.360    19387917.269                  
       213.000         140.000  
  23285490.484    23285496.409    15138235.468    11774185.995                  
       551.000         393.000  
  21632968.028    21632973.028    10550752.069     8206143.031                  
      1054.000         603.000  
  23396543.651    23396550.991    16847252.103    13103417.751                  
       660.000         454.000  
  22768275.507    22768280.502     3467167.053     2696684.330                  
       289.000         168.000  
 22 01 20 00 08 00.0000000  0 10G18G26G29G31G32R04R15R17R18R24      
  20658745.370    20658745.999     5881772.378     4736047.552                  
       549.000         493.000  
  26931680.579    26931688.109    32932010.636    25812413.566                  
       299.000         339.000  
  23141352.162    23141352.087     3851504.837     3151195.767                  
       283.000         207.000  
  24017344.040    24017344.468    22311698.754    17538671.994                  
       702.000         490.000  
  26306667.310    26306672.208    19031914.841    14979004.507                  
       293.000         241.000  
  27128237.728    27128248.768    25215439.240    19611968.853                  
       210.000         136.000  
  23430270.416    23430276.829    15911894.244    12375920.181                  
       546.000         394.000  
  21828531.430    21828536.392    11597251.298     9020086.589                  
      1033.000         605.000  
  23575869.005    23575876.185    17804500.923    13847944.082                  
       658.000         451.000  
  22850848.299    22850854.232     3908723.771     3040117.118                  
       292.000         169.000  
 22 01 20 00 08 30.0000000  0 11G18G25G26G29G31G32R04R15R17R18R24   
  20797926.173    20797926.826     6613171.990     5305969.246                  
       576.000         517.000  
  20019206.402    20019210.244       94333.071      226192.134                  
       236.000         228.000  
  27098051.746    27098060.746    33806276.538    26493654.113                  
       295.000         331.000  
  23225743.571    23225744.270     4294984.374     3496763.980                  
       286.000         212.000  
  24213771.842    24213772.359    23343931.460    18343008.689                  
       688.000         482.000  
  26420471.475    26420476.512    19629949.514    15445003.284                  
       286.000         237.000  
  27179728.014    27179742.005    25491180.057    19826435.659                  
       207.000         133.000  
  23577043.901    23577050.253    16696206.702    12985940.631                  
       543.000         392.000  
  22026833.826    22026838.597    12658405.391     9845428.394                  
      1008.000         600.000  
  23757715.039    23757722.602    18775204.147    14602934.900                  
       656.000         451.000  
  22935473.612    22935478.822     4361251.856     3392083.115                  
       295.000         168.000  
 22 01 20 00 09 00.0000000  0 10G18G25G26G29G31G32R15R17R18R24      
  20943864.142    20943864.944     7380080.724     5903560.358                  
       601.000         537.000  
  20039190.374    20039193.360      199348.161      308021.965                  
       260.000         235.000  
  27263540.365    27263550.959    34675890.413    27171267.463                  
       287.000         322.000  
  23313006.721    23313007.099     4753554.605     3854091.239                  
       283.000         216.000  
  24411654.697    24411654.808    24383809.582    19153302.762                  
       672.000         475.000  
  26533618.756    26533624.524    20224528.445    15908308.253                  
       283.000         235.000  
  23725673.385    23725680.059    17490437.379    13603675.139                  
       534.000         394.000  
  22227583.398    22227588.043    13732655.620    10680956.054                  
       983.000         593.000  
  23941850.474    23941858.864    19758130.389    15367432.372                  
       651.000         446.000  
  23022003.161    23022008.956     4823964.210     3751970.100                  
       297.000         168.000  
 22 01 20 00 09 30.0000000  0 10G18G25G26G29G31G32R15R17R18R24      
  21096269.355    21096270.153     8180975.507     6527634.106                  
       627.000         565.000  
  20066353.910    20066357.204      342094.815      419252.994                  
       278.000         243.000  
  27428033.311    27428046.537    35540265.572    27844796.025                  
       284.000         312.000  
  23403017.650    23403018.748     5226564.220     4222669.922                  
       286.000         223.000  
  24610782.463    24610782.963    25430231.457    19968695.788                  
       653.000         473.000  
  26646023.077    26646029.885    20815201.859    16368568.881                  
       279.000         231.000  
  23876022.507    23876029.233    18293852.377    14228552.852                  
       525.000         391.000  
  22430494.103    22430499.414    14818471.886    11525479.477                  
       973.000         584.000  
  24128046.940    24128055.177    20752055.900    16140484.684                  
       637.000         443.000  
  23110291.243    23110297.611     5296078.969     4119170.191                  
       296.000         169.000  
 22 01 20 00 10 00.0000000  0 10G18G25G26G29G31G32R15R17R18R24      
  21254846.145    21254846.999     9014301.380     7176978.835                  
       653.000         586.000  
  20100659.258    20100662.264      522366.354      559724.259                  
       293.000         256.000  
  27591421.779    27591438.245    36398833.276    28513798.013                  
       276.000         304.000  
  23495651.710    23495652.506     5713359.592     4601990.818                  
       287.000         225.000  
  24810949.756    24810950.158    26482114.280    20788344.057                  
       629.000         464.000  
  26757602.532    26757611.276    21401537.480    16825448.750                  
       275.000         227.000  
  24027952.928    24027959.454    19105719.799    14860004.711                  
       519.000         388.000  
  22635285.522    22635291.811    15914354.011    12377831.892                  
       970.000         571.000  
  24316076.387    24316084.967    21755765.806    16921146.942                  
       624.000         436.000  
  23200192.692    23200198.220     5776820.094     4493079.784                  
       296.000         172.000  
 22 01 20 00 10 30.0000000  0 10G18G25G26G29G31G32R15R17R18R24      
  21419293.685    21419294.467     9878478.308     7850363.383                  
       674.000         609.000  
  20142051.255    20142054.594      739884.871      729219.122                  
       302.000         263.000  
  27753598.317    27753617.911    37251045.500    29177851.099                  
       266.000         298.000  
  23590784.655    23590785.196     6213284.708     4991542.722                  
       287.000         230.000  
  25011953.978    25011954.943    27538395.117    21611419.241                  
       609.000         456.000  
  26868278.871    26868288.071    21983118.290    17278622.798                  
       272.000         227.000  
  24181328.145    24181335.298    19925309.121    15497462.396                  
       511.000         388.000  
  22841684.835    22841690.281    17018833.717    13236871.332                  
       971.000         562.000  
  24505713.377    24505721.734    22768054.814    17708481.576                  
       606.000         430.000  
  23291563.588    23291570.260     6265419.542     4873101.290                  
       298.000         173.000  
 22 01 20 00 11 00.0000000  0 11G18G25G26G29G31G32R14R15R17R18R24   
  21589307.669    21589308.407    10771907.257     8546541.653                  
       684.000         627.000  
  20190465.536    20190468.564      994303.287      927467.088                  
       312.000         275.000  
  27914459.588    27914478.566    38096363.638    29836537.851                  
       261.000         293.000  
  23688290.613    23688291.822     6725682.501     5390813.346                  
       288.000         234.000  
  25213596.528    25213597.854    28598031.566    22437108.984                  
       585.000         448.000  
  26977973.925    26977985.619    22559543.240    17727778.168                  
       272.000         218.000  
  19881570.612    19881578.348      377576.765      293676.331                  
       814.000         429.000  
  24336012.871    24336019.886    20751893.779    16140360.653                  
       503.000         384.000  
  23049421.327    23049427.640    18130475.203    14101480.942                  
       966.000         553.000  
  24696734.083    24696742.956    23787730.329    18501560.827                  
       594.000         418.000  
  23384261.889    23384267.621     6761117.908     5258643.870                  
       299.000         174.000  
 22 01 20 00 11 30.0000000  0 11G18G25G26G29G31G32R14R15R17R18R24   
  21764581.292    21764582.298    11692976.215     9264257.512                  
       690.000         644.000  
  20245822.859    20245826.384     1285207.076     1154145.133                  
       326.000         286.000  
  28073904.459    28073923.955    38934253.211    30489439.196                  
       261.000         284.000  
  23788045.977    23788047.520     7249897.691     5799292.246                  
       287.000         237.000  
  25415683.873    25415685.444    29660002.144    23264617.152                  
       563.000         437.000  
  27086615.545    27086629.484    23130427.099    18172614.154                  
       269.000         215.000  
  20011684.394    20011691.712     1071156.780      833127.295                  
       842.000         448.000  
  24491871.655    24491879.268    21584750.482    16788136.740                  
       497.000         384.000  
  23258235.425    23258240.862    19247875.960    14970569.782                  
       954.000         544.000  
  24888918.279    24888927.760    24813612.311    19299466.558                  
       585.000         413.000  
  23478148.012    23478154.214     7263167.366     5649126.032                  
       298.000         176.000  
 22 01 20 00 12 00.0000000  0 11G18G25G26G29G31G32R14R15R17R18R24   
  21944806.683    21944807.765    12640065.996    10002249.269                  
       695.000         657.000  
  20308031.796    20308035.277     1612116.992     1408879.927                  
       335.000         298.000  
  28231833.446    28231850.673    39764208.942    31136166.503                  
       259.000         276.000  
  23889925.821    23889926.655     7785276.899     6216470.364                  
       286.000         241.000  
  25618025.453    25618027.404    30723306.690    24093164.288                  
       543.000         424.000  
  27194134.825    27194150.715    23695401.432    18612843.426                  
       264.000         215.000  
  20147516.514    20147523.931     1795216.150     1396284.394                  
       871.000         465.000  
  24648770.195    24648777.989    22423160.919    17440232.006                  
       491.000         378.000  
  23467869.646    23467876.047    20369668.414    15843074.187                  
       929.000         531.000  
  25082047.649    25082058.034    25844535.598    20101292.130                  
       579.000         408.000  
  23573084.213    23573090.136     7770830.999     6043974.812                  
       298.000         178.000  
 22 01 20 00 12 30.0000000  0 11G18G25G26G29G31G32R14R15R17R18R24   
  22129675.038    22129676.253    13611554.845    10759253.157                  
       705.000         664.000  
  20376989.561    20376993.031     1974490.733     1691248.838                  
       349.000         314.000  
  28388155.020    28388169.799    40585720.075    31776314.175                  
       252.000         261.000  
  23993805.660    23993807.204     8331169.222     6641840.401                  
       285.000         242.000  
  25820435.073    25820438.021    31786966.174    24921987.135                  
       518.000         414.000  
  27300463.228    27300482.758    24254114.481    19048192.049                  
       260.000         215.000  
  20288839.286    20288846.102     2548543.560     1982205.441                  
       897.000         485.000  
  24806574.941    24806583.224    23266411.016    18096090.628                  
       489.000         375.000  
  23678075.795    23678081.737    21494519.211    16717956.997                  
       896.000         522.000  
  25275907.010    25275919.126    26879349.142    20906141.490                  
       572.000         402.000  
  23668935.232    23668941.639     8283383.993     6442626.142                  
       298.000         178.000  
 22 01 20 00 13 00.0000000  0 10G18G25G29G31G32R14R15R17R18R24      
  22318878.769    22318879.701    14605823.604    11534007.616                  
       724.000         673.000  
  20452581.225    20452584.519     2371726.427     2000782.915                  
       365.000         330.000  
  24099563.746    24099564.895     8886927.967     7074898.453                  
       283.000         246.000  
  26022730.885    26022734.544    32850022.582    25750338.770                  
       506.000         404.000  
  27405537.490    27405560.276    24806232.271    19478400.970                  
       256.000         211.000  
  20435420.551    20435427.969     3329904.827     2589930.574                  
       919.000         500.000  
  24965153.397    24965162.180    24113792.888    18755161.838                  
       480.000         370.000  
  23888611.411    23888617.940    22621130.520    17594208.711                  
       854.000         511.000  
  25470285.015    25470298.783    27916918.975    21713131.816                  
       562.000         396.000  
  23765567.172    23765574.813     8800115.353     6844527.142                  
       297.000         182.000  
 22 01 20 00 13 30.0000000  0 10G18G25G29G31G32R14R15R17R18R24      
  22512109.960    22512111.140    15621259.494    12325255.900                  
       736.000         675.000  
  20534681.487    20534684.678     2803165.434     2336968.935                  
       374.000         349.000  
  24207077.117    24207078.342     9451911.648     7515144.842                  
       281.000         246.000  
  26224735.673    26224740.450    33911539.447    26577488.830                  
       487.000         399.000  
  27509294.886    27509320.366    25351438.119    19903225.385                  
       251.000         210.000  
  20587026.614    20587033.450     4138047.203     3218485.426                  
       940.000         520.000  
  25124374.783    25124384.697    24964604.486    19416899.312                  
       478.000         367.000  
  24099240.319    24099247.133    23748239.521    18470847.101                  
       819.000         497.000  
  25664973.037    25664989.650    28956127.735    22521393.087                  
       549.000         389.000  
  23862850.614    23862857.920     9320329.736     7249137.302                  
       296.000         184.000  
 22 01 20 00 14 00.0000000  0 11G18G23G25G29G31G32R14R15R17R18R24   
  22709064.420    22709065.915    16656260.169    13131749.426                  
       732.000         680.000  
  21405235.483    21405236.104      144734.515      264966.681                  
       251.000         247.000  
  20623154.991    20623158.557     3268095.603     2699251.960                  
       385.000         363.000  
  24316224.658    24316226.661    10025484.107     7962083.740                  
       282.000         248.000  
  26426274.557    26426282.591    34970600.993    27402722.722                  
       472.000         391.000  
  27611678.217    27611705.844    25889427.717    20322428.623                  
       245.000         211.000  
  20743418.250    20743426.004     4971703.925     3866884.826                  
       951.000         534.000  
  25284109.053    25284121.945    25818149.231    20080760.627                  
       475.000         358.000  
  24309732.951    24309739.818    24874618.454    19346916.998                  
       791.000         477.000  
  25859765.021    25859786.204    29995877.259    23330070.769                  
       533.000         379.000  
  23960658.043    23960664.973     9843343.999     7655924.827                  
       290.000         182.000  
 22 01 20 00 14 30.0000000  0 12G10G18G23G25G29G31G32R14R15R17R18R24
  24779507.426    24779511.513      110714.103      238453.037                  
       168.000         163.000  
  22909439.972    22909441.156    17709237.231    13952250.478                  
       716.000         681.000  
  21432440.150    21432441.734      287698.714      376367.133                  
       258.000         258.000  
  20717856.715    20717860.229     3765754.870     3087038.220                  
       399.000         379.000  
  24426887.296    24426889.129    10607016.128     8415224.936                  
       278.000         247.000  
  26627179.610    26627190.011    36026313.151    28225342.863                  
       454.000         385.000  
  27712632.739    27712662.201    26419906.414    20735778.700                  
       244.000         208.000  
  20904357.139    20904364.972     5829597.756     4534135.252                  
       970.000         549.000  
  25444227.609    25444242.066    26673738.065    20746209.328                  
       474.000         355.000  
  24519866.139    24519875.031    25999074.486    20221490.421                  
       763.000         467.000  
  26054457.983    26054483.010    31035096.253    24138335.541                  
       512.000         367.000  
  24058864.773    24058871.900    10368493.030     8064373.000                  
       288.000         184.000  
 22 01 20 00 15 00.0000000  0 12G10G18G23G25G29G31G32R14R15R17R18R24
  24799812.972    24799816.836      217417.538      321598.275                  
       169.000         166.000  
  23112936.941    23112938.551    18778619.491    14785534.765                  
       696.000         682.000  
  21466885.992    21466886.847      468708.437      517413.525                  
       273.000         269.000  
  20818632.496    20818636.045     4295334.571     3499697.488                  
       412.000         390.000  
  24538946.172    24538948.409    11195885.498     8874083.298                  
       280.000         247.000  
  26827284.411    26827298.945    37077806.766    29044672.663                  
       439.000         376.000  
  27812106.091    27812139.110    26942597.654    21143059.208                  
       246.000         207.000  
  21069602.437    21069610.510     6710445.377     5219238.607                  
       990.000         557.000  
  25604602.970    25604620.517    27530690.214    21412715.717                  
       468.000         345.000  
  24729425.695    24729435.833    27120449.852    21093666.413                  
       738.000         452.000  
  26248851.180    26248878.811    32072736.499    24945377.749                  
       491.000         356.000  
  24157349.045    24157356.422    10895125.720     8473974.237                  
       282.000         183.000  
 22 01 20 00 15 30.0000000  0 12G10G18G23G25G29G31G32R14R15R17R18R24
  24823395.030    24823398.246      341338.474      418159.685                  
       172.000         169.000  
  23319260.856    23319262.579    19862854.922    15630392.741                  
       671.000         673.000  
  21508545.440    21508546.415      687629.831      688001.345                  
       283.000         279.000  
  20925320.657    20925324.254     4855983.154     3936566.153                  
       425.000         400.000  
  24652284.836    24652287.330    11791477.908     9338179.892                  
       282.000         243.000  
  27026425.083    27026443.307    38124241.228    29860061.709                  
       427.000         366.000  
  27910043.505    27910075.211    27457272.790    21544107.673                  
       247.000         209.000  
  21238912.194    21238920.212     7612960.594     5921194.360                  
      1011.000         567.000  
  25765110.174    25765130.595    28388332.075    22079755.945                  
       462.000         341.000  
  24938201.464    24938212.792    28237620.469    21962569.832                  
       712.000         440.000  
  26442750.514    26442779.768    33107755.972    25750386.050                  
       477.000         344.000  
  24255993.208    24256002.072    11422609.326     8884236.392                  
       278.000         183.000  
 22 01 20 00 16 00.0000000  0 12G10G18G23G25G29G31G32R14R15R17R18R24
  24850279.175    24850282.876      482613.682      528243.635                  
       179.000         170.000  
  23528120.097    23528122.024    20960413.904    16485632.425                  
       655.000         668.000  
  21557378.574    21557380.234      944248.037      887963.106                  
       300.000         293.000  
  21037751.718    21037755.463     5446810.039     4396950.230                  
       438.000         413.000  
  24766787.696    24766790.570    12393187.755     9807042.747                  
       288.000         242.000  
  27224442.680    27224462.762    39164798.385    30670877.315                  
       406.000         354.000  
  28006400.214    28006429.982    27963670.977    21938713.377                  
       245.000         206.000  
  21412046.168    21412054.360     8535857.913     6639002.684                  
      1035.000         576.000  
  25925622.142    25925646.464    29246004.162    22746819.899                  
       454.000         334.000  
  25145989.542    25146003.220    29349496.786    22827352.437                  
       687.000         434.000  
  26635963.161    26635992.251    34139140.178    26552574.264                  
       462.000         337.000  
  24354681.934    24354692.135    11950328.543     9294680.849                  
       274.000         181.000  
 22 01 20 00 16 30.0000000  0 13G10G12G18G23G25G29G31G32R14R15R17R18
                                R24
  24880486.656    24880490.254      641351.551      651934.620                  
       181.000         172.000  
  19617996.833    19617997.480       56275.850      197075.883                  
       243.000         188.000  
  23739228.331    23739231.150    22069791.010    17350080.756                  
       651.000         652.000  
  21613329.263    21613330.397     1238268.561     1117069.622                  
       311.000         304.000  
  21155749.018    21155753.252     6066889.696     4880128.806                  
       450.000         423.000  
  24882341.509    24882344.930    13000420.355    10280209.119                  
       290.000         240.000  
  27421184.630    27421206.152    40198664.110    31476481.772                  
       395.000         342.000  
  28101134.282    28101160.812    28461553.873    22326686.983                  
       250.000         204.000  
  21588762.989    21588771.299     9477855.464     7371666.656                  
      1057.000         580.000  
  26086015.756    26086041.780    30103056.809    23413406.273                  
       447.000         325.000  
  25352593.065    25352610.453    30455024.684    23687194.202                  
       663.000         422.000  
  26828302.496    26828330.399    35165884.765    27351159.119                  
       451.000         327.000  
  24453303.738    24453314.478    12477687.922     9704845.332                  
       267.000         178.000  
 22 01 20 00 17 00.0000000  0 13G10G12G18G23G25G29G31G32R14R15R17R18
                                R24
  24914031.845    24914035.904      817631.999      789295.319                  
       187.000         176.000  
  19631031.294    19631031.441      124768.191      250446.383                  
       258.000         199.000  
  23952304.382    23952307.138    23189507.413    18222585.623                  
       645.000         641.000  
  21676326.164    21676327.322     1569317.790     1375029.630                  
       317.000         322.000  
  21279130.894    21279135.380     6715264.111     5385355.142                  
       461.000         434.000  
  24998835.210    24998838.724    13612588.699    10757221.038                  
       295.000         237.000  
  27616500.575    27616521.462    41225057.599    32276269.392                  
       384.000         330.000  
  28194207.692    28194231.647    28950690.586    22707841.339                  
       247.000         201.000  
  21768823.839    21768832.520    10437677.989     8118194.491                  
      1068.000         593.000  
  26246167.496    26246195.528    30958845.586    24079015.854                  
       442.000         319.000  
  25557821.593    25557842.381    31553188.581    24541307.690                  
       635.000         417.000  
  27019586.854    27019612.119    36187006.137    28145373.493                  
       440.000         324.000  
  24551749.351    24551761.179    13004108.307    10114279.281                  
       263.000         178.000  
 22 01 20 00 17 30.0000000  0 12G10G12G18G23G25G29G31G32R14R15R17R24
  24950923.879    24950929.628     1011504.206      940364.040                  
       193.000         178.000  
  19652083.647    19652083.999      235400.302      336653.274                  
       271.000         207.000  
  24167071.919    24167074.658    24318110.955    19102015.369                  
       632.000         624.000  
  21746283.371    21746284.919     1936946.388     1661493.337                  
       330.000         332.000  
  21407709.652    21407713.646     7390948.148     5911861.974                  
       475.000         444.000  
  25116157.998    25116162.400    14229118.805    11237632.290                  
       296.000         238.000  
  27810245.365    27810265.456    42243208.946    33069638.157                  
       370.000         318.000  
  28285580.164    28285603.282    29430880.174    23082021.004                  
       265.000         227.000  
  21951990.964    21951999.553    11414058.405     8877600.736                  
      1068.000         594.000  
  26405960.268    26405988.102    31812722.108    24743140.259                  
       437.000         312.000  
  25761489.365    25761512.837    32643006.598    25388931.940                  
       614.000         404.000  
  24649915.369    24649928.137    13529031.444    10522549.579                  
       258.000         178.000  
 22 01 20 00 18 00.0000000  0 12G10G12G18G23G25G29G31G32R14R15R17R24
  24991169.084    24991173.731     1222987.912     1105156.450                  
       196.000         183.000  
  19681113.302    19681113.418      387951.133      455523.955                  
       288.000         216.000  
  24383259.449    24383262.923    25454178.682    19987261.290                  
       624.000         614.000  
  21823102.301    21823103.631     2340630.023     1976051.908                  
       334.000         345.000  
  21541292.622    21541296.833     8092930.971     6458861.314                  
       488.000         457.000  
  25234203.399    25234208.561    14849444.275    11721000.922                  
       297.000         237.000  
  28002277.340    28002295.037    43252371.707    33856005.991                  
       357.000         306.000  
  28375214.955    28375235.484    29901942.624    23449090.428                  
       241.000         194.000  
  22138028.848    22138036.521    12405741.736     9648909.443                  
      1067.000         605.000  
  26565274.947    26565303.195    32664055.696    25405289.301                  
       432.000         309.000  
  25963417.179    25963443.436    33723522.759    26229322.614                  
       600.000         394.000  
  24747699.549    24747713.767    14051912.800    10929231.394                  
       254.000         179.000  
 22 01 20 00 18 30.0000000  0 13G10G12G18G23G25G29G31G32R13R14R15R17
                                R24
  25034762.411    25034767.064     1452070.363     1283661.828                  
       199.000         186.000  
  19718061.339    19718061.165      582112.223      606817.976                  
       305.000         228.000  
  24600602.693    24600606.761    26596316.276    20877236.496                  
       607.000         602.000  
  21906668.384    21906670.079     2779772.771     2318240.610                  
       338.000         359.000  
  21679684.118    21679688.415     8820180.533     7025548.627                  
       500.000         468.000  
  25352866.833    25352872.368    15473008.698    12206892.238                  
       295.000         236.000  
  28192457.464    28192471.655    44251830.883    34634819.860                  
       349.000         296.000  
  28463078.986    28463098.876    30363692.246    23808900.020                  
       235.000         187.000  
  19871906.308    19871912.945      240714.539      187230.015                  
       116.000         115.000  
  22326704.065    22326713.029    13411484.294    10431152.729                  
      1050.000         605.000  
  26723996.121    26724022.424    33512224.304    26064979.287                  
       426.000         299.000  
  26163433.643    26163460.971    34793818.362    27061767.036                  
       591.000         379.000  
  24845004.740    24845018.932    14572229.632    11333917.871                  
       254.000         174.000  
 22 01 20 00 19 00.0000000  0 13G05G10G12G18G23G25G29G32R13R14R15R17
                                R24
  22552501.848    22552504.158      337082.507      411500.146                  
       205.000         162.000  
  25081697.727    25081701.882     1698709.024     1475846.662                  
       203.000         191.000  
  19762852.294    19762852.955      817489.253      790228.135                  
       314.000         235.000  
  24818842.060    24818846.773    27743159.982    21770877.979                  
       589.000         599.000  
  21996856.566    21996858.199     3253711.404     2687542.664                  
       351.000         376.000  
  21822684.285    21822688.990     9571647.858     7611106.610                  
       509.000         480.000  
  25472042.843    25472049.380    16099270.119    12694884.573                  
       298.000         236.000  
  28549148.638    28549168.235    30816003.011    24161352.374                  
       202.000         156.000  
  19956280.920    19956287.563      691265.995      537658.332                  
       124.000         121.000  
  22517786.987    22517796.307    14430057.966    11223375.301                  
      1034.000         603.000  
  26882009.387    26882035.617    34356605.949    26721722.191                  
       423.000         292.000  
  26361370.605    26361399.094    35853004.165    27885574.505                  
       582.000         365.000  
  24941735.821    24941751.398    15089481.257    11736221.137                  
       251.000         173.000  
 22 01 20 00 19 30.0000000  0 13G05G10G12G18G23G25G29G32R13R14R15R17
                                R24
  22614646.197    22614648.402      663646.584      665964.998                  
       219.000         168.000  
  25131959.690    25131964.981     1962831.795     1681654.840                  
       206.000         192.000  
  19815395.491    19815396.098     1093606.384     1005384.095                  
       325.000         244.000  
  25037724.410    25037729.950    28893377.411    22667147.219                  
       568.000         587.000  
  22093527.521    22093529.520     3761718.638     3083391.664                  
       361.000         391.000  
  21970090.842    21970095.553    10346270.089     8214707.325                  
       523.000         491.000  
  25591631.243    25591638.553    16727697.808    13184564.791                  
       295.000         233.000  
  28633513.095    28633533.542    31259342.224    24506810.704                  
       118.000          93.000  
  20046275.162    20046282.317     1171830.352      911430.158                  
       132.000         126.000  
  22711050.004    22711059.701    15460251.503    12024635.015                  
      1022.000         598.000  
  27039198.859    27039223.839    35196612.935    27375069.113                  
       423.000         282.000  
  26557066.254    26557094.812    36900225.004    28700082.208                  
       573.000         349.000  
  25037803.953    25037819.401    15603182.347    12135763.007                  
       247.000         171.000  
 22 01 20 00 20 00.0000000  0 12G05G10G12G18G23G25G29R13R14R15R17R24
  22681730.343    22681732.905     1016176.940      940663.610                  
       227.000         174.000  
  25185528.702    25185535.141     2244338.292     1901009.363                  
       211.000         195.000  
  19875585.700    19875586.438     1409906.768     1251851.941                  
       336.000         248.000  
  25257001.845    25257008.853    30045667.697    23565030.266                  
       546.000         571.000  
  22196531.759    22196533.875     4303006.327     3505173.972                  
       376.000         405.000  
  22121699.021    22121703.618    11142973.281     8835514.416                  
       531.000         502.000  
  25711533.503    25711541.639    17357772.122    13675527.983                  
       286.000         231.000  
  20141718.941    20141725.981     1681490.244     1307832.251                  
       139.000         132.000  
  22906269.315    22906279.427    16500872.142    12834004.518                  
      1022.000         598.000  
  27195455.556    27195477.330    36031647.706    28024552.863                  
       417.000         276.000  
  26750368.515    26750395.865    37934643.785    29504635.271                  
       559.000         338.000  
  25133119.888    25133138.019    16112864.091    12532176.955                  
       249.000         170.000  
 22 01 20 00 20 30.0000000  0 12G05G10G12G18G23G25G29R13R14R15R17R24
  22753590.948    22753593.985     1393806.043     1234919.542                  
       233.000         180.000  
  25242380.866    25242386.379     2543096.833     2133808.430                  
       215.000         198.000  
  19943301.715    19943301.767     1765755.884     1529136.950                  
       359.000         258.000  
  25476433.863    25476442.421    31198762.788    24463539.231                  
       528.000         557.000  
  22305707.243    22305708.927     4876727.734     3952229.696                  
       391.000         420.000  
  22277302.322    22277307.067    11960674.456     9472684.181                  
       537.000         507.000  
  25831652.669    25831661.735    17988983.460    14167376.140                  
       286.000         232.000  
  20242432.560    20242438.932     2219295.693     1726125.482                  
       146.000         137.000  
  23103224.336    23103234.270    17550746.928    13650572.387                  
      1029.000         588.000  
  27350895.977    27350919.898    36862261.885    28670599.558                  
       176.000         111.000  
  26941125.105    26941148.697    38955472.769    30298627.428                  
       545.000         335.000  
  25227603.834    25227622.891    16618079.520    12925114.286                  
       249.000         169.000  
 22 01 20 00 21 00.0000000  0 10G05G10G12G18G23G25G29R13R14R24      
  22830057.652    22830060.524     1795636.343     1548032.918                  
       237.000         185.000  
  25302484.712    25302490.410     2858938.358     2379917.451                  
       217.000         203.000  
  20018408.977    20018409.376     2160446.144     1836687.260                  
       383.000         267.000  
  25695784.676    25695795.308    32351425.013    25361708.943                  
       501.000         535.000  
  22420883.344    22420885.602     5481980.363     4423854.327                  
       405.000         435.000  
  22436694.455    22436699.454    12798281.078    10125363.521                  
       538.000         512.000  
  25951894.718    25951905.826    18620834.107    14659720.450                  
       280.000         230.000  
  20348233.441    20348240.418     2784267.948     2165547.755                  
       153.000         141.000  
  23301698.509    23301709.556    18608719.355    14473438.047                  
      1031.000         579.000  
  25321174.647    25321196.165    17118404.734    13314246.437                  
       251.000         170.000  
 22 01 20 00 21 30.0000000  0 10G05G10G12G18G23G25G29R13R14R24      
  22910953.752    22910956.702     2220747.946     1879288.891                  
       241.000         190.000  
  25365802.893    25365808.646     3191672.162     2639189.148                  
       218.000         204.000  
  20100759.685    20100760.720     2593204.406     2173901.658                  
       407.000         274.000  
  25914825.702    25914839.504    33502448.284    26258598.716                  
       482.000         520.000  
  22541879.692    22541881.598     6117817.212     4919311.144                  
       415.000         445.000  
  22599666.853    22599672.246    13654703.567    10792704.697                  
       531.000         514.000  
  26072167.281    26072179.598    19252846.285    15152191.700                  
       275.000         228.000  
  20458936.918    20458942.198     3375408.535     2625323.706                  
       156.000         144.000  
  23501479.644    23501491.101    19673654.251    15301717.994                  
      1027.000         575.000  
  25413753.420    25413776.803    17613443.614    13699270.516                  
       248.000         167.000  
 22 01 20 00 22 00.0000000  0 10G05G10G12G18G23G25G29R13R14R24      
  22996099.181    22996101.610     2668192.901     2227948.565                  
       248.000         194.000  
  25432292.044    25432297.756     3541080.011     2911455.720                  
       220.000         203.000  
  20190194.566    20190195.496     3063190.679     2540125.466                  
       435.000         284.000  
  26133334.043    26133350.416    34650661.984    27153297.063                  
       460.000         506.000  
  22668505.662    22668508.018     6783245.050     5437826.994                  
       424.000         453.000  
  22766011.385    22766016.946    14528851.461    11473859.162                  
       522.000         517.000  
  26192380.459    26192393.358    19884549.007    15644422.725                  
       266.000         227.000  
  20574344.759    20574352.675     3991696.602     3104659.652                  
       160.000         151.000  
  23702358.260    23702370.401    20744441.846    16134550.369                  
      1005.000         564.000  
  25505270.787    25505294.010    18102805.877    14079881.074                  
       243.000         167.000  
 22 01 20 00 22 30.0000000  0 10G05G10G12G18G23G25G29R13R14R24      
  23085308.837    23085310.715     3136998.104     2593252.208                  
       247.000         200.000  
  25501904.768    25501910.335     3906907.629     3196518.629                  
       227.000         207.000  
  20286542.457    20286542.442     3569502.103     2934654.475                  
       462.000         296.000  
  26351091.337    26351111.860    35794926.035    28044916.441                  
       444.000         495.000  
  22800565.057    22800566.892     7477224.864     5978591.584                  
       427.000         465.000  
  22935520.670    22935525.425    15419630.803    12167973.975                  
       511.000         518.000  
  26312445.314    26312460.083    20515480.434    16136053.205                  
       261.000         220.000  
  20694271.036    20694275.769     4632091.726     3602745.741                  
       163.000         152.000  
  23904129.936    23904142.402    21819991.767    16971087.694                  
       982.000         557.000  
  25595656.765    25595682.764    18586115.360    14455782.145                  
       239.000         166.000  
 22 01 20 00 23 00.0000000  0 10G05G10G12G18G23G25G29R13R14R24      
  23178395.947    23178398.899     3626178.558     2974432.065                  
       254.000         203.000  
  25574589.049    25574593.861     4288871.709     3494154.941                  
       221.000         209.000  
  20389620.688    20389620.975     4111184.198     3356744.701                  
       489.000         307.000  
  26567887.731    26567912.390    36934132.593    28932593.210                  
       426.000         485.000  
  22937853.159    22937855.174     8198682.770     6540767.201                  
       429.000         473.000  
  23107987.296    23107992.098    16325952.697    12874199.406                  
       496.000         516.000  
  26432280.136    26432295.978    21145190.605    16626730.190                  
       258.000         217.000  
  20818513.056    20818519.650     5295542.725     4118763.648                  
       166.000         156.000  
  24106594.626    24106607.277    22899234.961    17810497.474                  
       958.000         548.000  
  25684846.862    25684874.776    19063024.473    14826703.109                  
       233.000         166.000  
 22 01 20 00 23 30.0000000  0 11G05G10G12G18G23G25G29R03R13R14R24   
  23275171.458    23275173.474     4134736.429     3370711.246                  
       257.000         208.000  
  25650285.542    25650290.181     4686663.797     3804123.738                  
       229.000         211.000  
  20499239.242    20499239.116     4687233.499     3805614.377                  
       511.000         321.000  
  26783518.285    26783547.385    38067204.829    29815487.902                  
       409.000         477.000  
  23080160.221    23080162.419     8946513.322     7123492.571                  
       432.000         474.000  
  23283206.092    23283210.880    17246736.247    13591693.502                  
       493.000         511.000  
  26551800.820    26551818.681    21773248.911    17116119.757                  
       256.000         214.000  
  22731455.445    22731460.207       30909.256       24045.564                  
       284.000         181.000  
  20946875.283    20946881.756     5980990.327     4651889.798                  
       172.000         158.000  
  24309556.088    24309569.421    23981126.666    18651966.713                  
       928.000         537.000  
  25772780.059    25772809.893    19533209.494    15192394.462                  
       227.000         166.000  
 22 01 20 00 24 00.0000000  0 11G05G10G12G18G23G25G29R03R13R14R24   
  23375441.286    23375443.192     4661659.940     3781301.328                  
       259.000         211.000  
  25728930.550    25728935.140     5099949.418     4126164.853                  
       229.000         214.000  
  20615197.475    20615197.558     5296600.026     4280445.526                  
       541.000         333.000  
  26997783.570    26997817.859    39193099.045    30692788.279                  
       396.000         464.000  
  23227270.262    23227271.760     9719581.173     7725883.207                  
       438.000         479.000  
  23460972.898    23460977.380    18180906.016    14319618.139                  
       489.000         507.000  
  26670926.769    26670945.603    22399233.085    17603892.803                  
       251.000         209.000  
  22750415.029    22750420.454      132405.254      102987.152                  
       291.000         187.000  
  21079156.853    21079163.140     6687367.112     5201294.117                  
       178.000         161.000  
  24512823.447    24512837.132    25064643.926    19494699.436                  
       900.000         523.000  
  25859397.087    25859430.318    19996360.019    15552614.862                  
       221.000         165.000  
 22 01 20 00 24 30.0000000  0 11G05G10G12G18G23G25G29R03R13R14R24   
  23479011.820    23479014.614     5205929.113     4205407.288                  
       261.000         217.000  
  25810455.979    25810461.297     5528367.256     4459996.872                  
       233.000         215.000  
  20737288.648    20737288.843     5938193.122     4780388.257                  
       575.000         349.000  
  27210489.546    27210528.210    40310807.334    31563712.406                  
       381.000         450.000  
  23378961.754    23378963.728    10516725.479     8347034.592                  
       442.000         483.000  
  23641083.923    23641088.869    19127395.746    15057142.488                  
       491.000         502.000  
  26789580.557    26789602.877    23022730.226    18089726.068                  
       250.000         209.000  
  22773945.580    22773949.851      258359.143      200951.535                  
       302.000         193.000  
  21215158.375    21215164.061     7413601.594     5766143.255                  
       183.000         164.000  
  24716208.566    24716224.600    26148786.575    20337917.095                  
       870.000         508.000  
  25944644.012    25944676.942    20452182.933    15907135.613                  
       218.000         166.000  
 22 01 20 00 25 00.0000000  0 14G05G10G12G15G18G23G24G25G29R01R03R13
                                R14R24
  23585688.776    23585690.582     5766520.229     4642232.028                  
       261.000         219.000  
  25894786.934    25894792.102     5971531.664     4805319.933                  
       236.000         216.000  
  20865297.947    20865298.294     6610887.228     5304565.584                  
       601.000         363.000  
  19705439.413    19705440.139       85712.445      219859.598                  
       230.000         195.000  
  27421445.277    27421484.988    41419364.998    32427518.311                  
       369.000         432.000  
  23535010.072    23535011.638    11336764.431     8986026.086                  
       447.000         483.000  
  21436798.236    21436800.456      113403.455      239519.823                  
       186.000         235.000  
  23823338.458    23823343.285    20085150.080    15803444.506                  
       487.000         498.000  
  26907686.255    26907709.809    23643347.988    18573316.466                  
       247.000         201.000  
  20611997.408    20612003.182      152117.875      118316.513                  
       253.000         102.000  
  22802065.292    22802070.560      408894.121      318034.631                  
       314.000         196.000  
  21354676.484    21354681.378     8158621.918     6345603.667                  
       188.000         166.000  
  24919530.279    24919546.868    27232577.719    21180859.348                  
       837.000         491.000  
  26028469.964    26028506.532    20900404.224    16255742.749                  
       210.000         164.000  
 22 01 20 00 25 30.0000000  0 14G05G10G12G15G18G23G24G25G29R01R03R13
                                R14R24
  23695275.875    23695277.741     6342402.705     5090971.335                  
       261.000         222.000  
  25981846.375    25981850.676     6429029.779     5161811.866                  
       235.000         216.000  
  20999005.640    20999005.960     7313525.194     5852075.683                  
       626.000         383.000  
  19724570.361    19724570.263      186244.288      298196.179                  
       240.000         201.000  
  27630466.311    27630502.467    42517831.728    33283480.334                  
       360.000         417.000  
  23695186.412    23695188.358    12178496.846     9641921.400                  
       452.000         483.000  
  21469556.749    21469559.138      285550.679      373660.642                  
       193.000         241.000  
  24007538.100    24007542.968    21053123.575    16557709.269                  
       486.000         492.000  
  27025171.353    27025197.929    24260692.029    19054352.316                  
       244.000         199.000  
  20670576.248    20670583.192      465256.020      361868.431                  
       263.000         105.000  
  22834793.488    22834798.252      584086.413      454295.501                  
       327.000         201.000  
  21497510.938    21497517.727     8921356.354     6938841.602                  
       194.000         171.000  
  25122608.602    25122627.951    28315062.176    22022781.906                  
       805.000         478.000  
  26110828.708    26110867.220    21340769.263    16598238.343                  
       208.000         165.000  
 22 01 20 00 26 00.0000000  0 14G05G10G12G15G18G23G24G25G29R01R03R13
                                R14R24
  23807577.293    23807579.077     6932550.498     5550826.891                  
       254.000         225.000  
  26071550.084    26071555.090     6900426.980     5529134.378                  
       234.000         219.000  
  21138186.244    21138186.609     8044924.554     6421997.336                  
       651.000         403.000  
  19752865.936    19752865.632      334939.856      414062.990                  
       250.000         212.000  
  27837382.372    27837414.716    43605248.914    34130834.484                  
       353.000         401.000  
  23859259.850    23859261.254    13040708.467    10313774.619                  
       452.000         481.000  
  21507103.329    21507105.664      482863.706      527411.232                  
       196.000         251.000  
  24193485.775    24193490.682    22030284.536    17319133.028                  
       480.000         486.000  
  27141964.450    27141994.639    24874392.682    19532547.583                  
       243.000         198.000  
  20735521.468    20735527.716      812428.859      631891.960                  
       275.000         111.000  
  22872131.559    22872137.679      783967.175      609758.568                  
       340.000         203.000  
  21643464.686    21643470.450     9700738.598     7545027.900                  
       195.000         174.000  
  25325270.972    25325293.567    29395307.241    22862957.610                  
       775.000         465.000  
  26191673.848    26191714.631    21773048.151    16934446.307                  
       204.000         165.000  
 22 01 20 00 26 30.0000000  0 14G05G10G12G15G18G23G24G25G29R01R03R13
                                R14R24
  23922397.829    23922399.620     7535936.500     6020997.867                  
       251.000         228.000  
  26163811.616    26163816.398     7385264.421     5906929.750                  
       230.000         216.000  
  21282610.805    21282610.792     8803880.904     7013391.938                  
       671.000         423.000  
  19790265.975    19790267.191      531483.146      567213.720                  
       263.000         224.000  
  28042024.962    28042053.938    44680717.401    34968877.892                  
       340.000         386.000  
  24026996.847    24026998.393    13922172.769    11000629.917                  
       445.000         481.000  
  21549406.158    21549408.675      705164.251      700632.569                  
       204.000         259.000  
  24380988.113    24380992.920    23015614.142    18086921.953                  
       473.000         483.000  
  27257997.082    27258029.996    25484088.922    20007621.384                  
       239.000         194.000  
  20806652.071    20806659.248     1192661.256      927628.441                  
       289.000         115.000  
  22914080.642    22914084.063     1008518.944      784410.105                  
       351.000         209.000  
  21792336.056    21792342.815    10495706.975     8163336.726                  
       197.000         174.000  
  25527347.117    25527376.182    30472401.907    23700675.744                  
       742.000         451.000  
  26270965.753    26271007.988    22197018.362    17264191.807                  
       203.000         161.000  
 22 01 20 00 27 00.0000000  0 14G05G10G12G15G18G23G24G25G29R01R03R13
                                R14R24
  24039542.584    24039544.613     8151539.080     6500688.598                  
       247.000         229.000  
  26258539.363    26258544.766     7883062.329     6294824.220                  
       231.000         218.000  
  21432046.861    21432047.306     9589173.048     7625308.063                  
       691.000         441.000  
  19836690.639    19836691.142      775443.545      757312.982                  
       278.000         232.000  
  28244235.295    28244259.260    45743424.391    35796982.239                  
       267.000         307.000  
  24198163.026    24198164.501    14821655.724    11701525.779                  
       445.000         485.000  
  21596423.147    21596424.999      952241.530      893160.645                  
       213.000         264.000  
  24569853.573    24569858.755    24008108.322    18860293.720                  
       460.000         478.000  
  27373199.851    27373235.980    26089436.073    20479307.930                  
       237.000         193.000  
  20883774.251    20883780.753     1604925.805     1248279.093                  
       297.000         118.000  
  22960624.472    22960629.491     1257678.752      978201.509                  
       361.000         214.000  
  21943929.632    21943936.077    11305208.728     8792949.393                  
       195.000         179.000  
  25728673.320    25728708.905    31545458.477    24535243.817                  
       708.000         440.000  
  26348665.533    26348710.356    22612481.156    17587320.569                  
       201.000         162.000  
 22 01 20 00 27 30.0000000  0 13G05G10G12G15G23G24G25G29R01R03R13R14
                                R24
  24158818.898    24158820.977     8778341.311     6989106.156                  
       247.000         230.000  
  26355638.052    26355643.210     8393320.740     6692428.467                  
       230.000         219.000  
  21586259.278    21586259.493    10399566.261     8256783.493                  
       704.000         459.000  
  19892034.233    19892034.675     1066278.515      983937.820                  
       303.000         245.000  
  24372521.969    24372523.333    15737918.287    12415496.757                  
       445.000         489.000  
  21648107.999    21648110.752     1223851.157     1104804.781                  
       223.000         273.000  
  24759894.230    24759899.602    25006778.063    19638477.650                  
       451.000         471.000  
  27487509.954    27487548.933    26690094.533    20947342.046                  
       233.000         188.000  
  20966687.888    20966694.974     2048145.391     1593005.659                  
       307.000         128.000  
  23011746.380    23011750.306     1531336.324     1191046.714                  
       369.000         215.000  
  22098048.879    22098055.589    12128201.008     9433054.775                  
       194.000         177.000  
  25929086.818    25929132.279    32613617.708    25365994.276                  
       679.000         429.000  
  26424739.444    26424786.697    23019259.029    17903697.319                  
       202.000         161.000  
 22 01 20 00 28 00.0000000  0 13G05G10G12G15G23G24G25G29R01R03R13R14
                                R24
  24280034.831    24280036.592     9415335.475     7485465.411                  
       247.000         229.000  
  26455009.006    26455013.150     8915518.419     7099336.131                  
       227.000         216.000  
  21745011.764    21745011.740    11233816.131     8906848.464                  
       711.000         474.000  
  19956174.306    19956174.637     1403336.963     1246580.837                  
       327.000         252.000  
  24549837.275    24549838.768    16669717.950    13141574.551                  
       451.000         491.000  
  21704409.358    21704411.572     1519716.459     1335349.326                  
       231.000         281.000  
  24950924.922    24950930.126    26010649.243    20420714.537                  
       433.000         463.000  
  27600864.328    27600905.630    27285739.414    21411471.830                  
       230.000         187.000  
  21055182.505    21055189.047     2521200.176     1960937.310                  
       311.000         132.000  
  23067414.566    23067418.909     1829333.587     1422822.643                  
       375.000         222.000  
  22254503.016    22254508.759    12963651.354    10082849.702                  
       195.000         175.000  
  26128428.149    26128483.932    33676053.409    26192291.236                  
       648.000         412.000  
  26499155.259    26499201.150    23417189.590    18213197.530                  
       202.000         158.000  
 22 01 20 00 28 30.0000000  0 13G05G10G12G15G23G24G25G29R01R03R13R14
                                R24
  24402999.801    24403002.491    10061522.924     7988987.679                  
       248.000         228.000  
  26556549.033    26556553.717     9449115.121     7515125.627                  
       227.000         216.000  
  21908066.116    21908066.642    12090672.802     9574528.913                  
       720.000         482.000  
  20028967.165    20028966.899     1785864.484     1544654.180                  
       360.000         268.000  
  24729873.145    24729874.474    17615812.492    13878790.959                  
       449.000         490.000  
  21765267.728    21765270.796     1839529.907     1584554.576                  
       237.000         288.000  
  25142763.551    25142768.783    27018764.183    21206257.914                  
       420.000         452.000  
  27713203.008    27713245.519    27876053.463    21871449.447                  
       224.000         182.000  
  21149041.551    21149048.094     3022931.563     2351172.576                  
       312.000         134.000  
  23127591.363    23127596.297     2151467.582     1673371.269                  
       380.000         227.000  
  22413097.588    22413103.325    13810540.689    10741541.378                  
       194.000         173.000  
  26326538.043    26326599.975    34731981.868    27013541.517                  
       619.000         394.000  
  26571887.090    26571933.083    23806120.565    18515700.842                  
       205.000         155.000  
 22 01 20 00 29 00.0000000  0 13G05G10G12G15G23G24G25G29R01R03R13R14
                                R24
  24527528.600    24527530.421    10715919.135     8498906.270                  
       255.000         228.000  
  26660152.622    26660158.282     9993554.542     7939363.572                  
       226.000         211.000  
  22075184.351    22075184.593    12968884.608    10258849.677                  
       727.000         491.000  
  20110250.075    20110250.575     2213009.139     1877494.131                  
       386.000         276.000  
  24912393.758    24912395.496    18574962.831    14626180.544                  
       449.000         488.000  
  21830619.062    21830621.547     2182954.525     1852158.162                  
       238.000         296.000  
  25335230.845    25335236.553    28030182.301    21994374.785                  
       408.000         441.000  
  27824464.968    27824507.905    28460744.470    22327053.540                  
       220.000         181.000  
  21248042.815    21248049.006     3552149.617     2762786.490                  
       315.000         138.000  
  23192232.246    23192235.859     2497490.851     1942500.463                  
       386.000         232.000  
  22573646.895    22573652.958    14667864.762    11408348.880                  
       195.000         174.000  
  26523254.256    26523311.957    35780679.878    27829217.937                  
       599.000         386.000  
  26642906.967    26642952.264    24185922.373    18811107.591                  
       204.000         152.000  
 22 01 20 00 29 30.0000000  0 14G05G10G12G15G23G24G25G29R01R02R03R13
                                R14R24
  24653432.682    24653434.939    11377552.030     9014464.117                  
       254.000         225.000  
  26765711.128    26765715.930    10548264.467     8371604.442                  
       229.000         209.000  
  22246128.228    22246128.370    13867200.269    10958835.835                  
       739.000         495.000  
  20199843.357    20199843.843     2683826.959     2244365.176                  
       409.000         288.000  
  25097163.862    25097165.174    19545934.629    15382781.609                  
       442.000         481.000  
  21900394.428    21900396.596     2549623.761     2137874.472                  
       238.000         303.000  
  25528151.486    25528157.632    29043980.269    22784345.695                  
       401.000         431.000  
  27934595.933    27934636.231    29039517.024    22778053.469                  
       214.000         178.000  
  21351957.665    21351965.279     4107634.968     3194830.631                  
       312.000         140.000  
  19869059.855    19869066.274      771850.754      600331.750                  
       870.000         412.000  
  23261280.874    23261284.541     2867110.317     2229982.238                  
       391.000         234.000  
  22735965.197    22735970.946    15534634.925    12082503.383                  
       192.000         170.000  
  26718441.808    26718487.542    36821316.520    28638646.957                  
       581.000         374.000  
  26712197.852    26712242.069    24556470.533    19099316.335                  
       209.000         149.000  
 22 01 20 00 30 00.0000000  0 14G05G10G12G15G23G24G25G29R01R02R03R13
                                R14R24
  24780532.639    24780535.229    12045462.020     9534912.617                  
       259.000         229.000  
  26873112.748    26873117.212    11112656.092     8811389.090                  
       226.000         203.000  
  22420660.412    22420660.432    14784372.850    11673515.648                  
       752.000         499.000  
  20297551.987    20297551.815     3197287.074     2644463.931                  
       434.000         299.000  
  25283949.588    25283951.562    20527499.828    16147637.142                  
       434.000         475.000  
  21974517.364    21974519.590     2939142.948     2441395.894                  
       242.000         311.000  
  25721352.388    25721359.396    30059251.681    23575464.136                  
       385.000         425.000  
  28043544.273    28043584.338    29612065.494    23224199.885                  
       213.000         177.000  
  21460554.102    21460561.062     4688143.555     3646337.139                  
       313.000         146.000  
  20012360.971    20012367.205     1536533.286     1195084.771                  
       898.000         430.000  
  23334672.780    23334678.545     3259990.067     2535555.297                  
       396.000         240.000  
  22899871.717    22899876.115    16409878.232    12763248.061                  
       192.000         168.000  
  26911976.509    26912017.125    37853055.658    29441133.926                  
       556.000         359.000  
  26779742.038    26779786.504    24917661.310    19380244.299                  
       210.000         149.000  
 22 01 20 00 30 30.0000000  0 14G05G10G12G15G23G24G25G29R01R02R03R13
                                R14R24
  24908647.904    24908651.002    12718707.857    10059518.737                  
       262.000         226.000  
  26982241.054    26982246.664    11686127.025     9258248.017                  
       227.000         203.000  
  22598544.909    22598545.296    15719161.164    12401921.986                  
       764.000         501.000  
  20403163.626    20403163.669     3752279.827     3076925.760                  
       455.000         307.000  
  25472519.563    25472521.614    21518439.126    16919797.005                  
       425.000         466.000  
  22052907.767    22052910.840     3351090.844     2762394.180                  
       246.000         320.000  
  25914666.050    25914673.539    31075107.853    24367037.347                  
       384.000         418.000  
  28151258.474    28151296.562    30178125.159    23665290.319                  
       207.000         175.000  
  21573595.135    21573602.992     5292414.225     4116325.345                  
       310.000         147.000  
  20162539.802    20162545.857     2337916.382     1818382.652                  
       926.000         441.000  
  23412341.259    23412345.441     3675751.307     2858924.977                  
       402.000         241.000  
  23065183.332    23065189.815    17292639.363    13449839.898                  
       191.000         166.000  
  27103712.015    27103745.463    38875216.593    30236174.669                  
       533.000         343.000  
  26845520.054    26845561.969    25269420.003    19653837.692                  
       211.000         144.000  
 22 01 20 00 31 00.0000000  0 13G05G10G12G15G23G24G25G29R01R02R03R13
                                R24
  25037602.532    25037604.948    13396365.003    10587562.441                  
       268.000         224.000  
  27092981.338    27092987.238    12268061.883     9711701.635                  
       227.000         202.000  
  22779547.045    22779547.145    16670333.293    13143094.975                  
       764.000         506.000  
  20516453.420    20516453.746     4347622.276     3540828.991                  
       480.000         320.000  
  25662643.488    25662645.339    22517543.660    17698319.294                  
       416.000         459.000  
  22135482.194    22135485.309     3785021.143     3100521.709                  
       247.000         326.000  
  26107925.569    26107934.088    32090677.705    25158386.236                  
       370.000         415.000  
  28257686.832    28257724.581    30737435.429    24101122.816                  
       208.000         172.000  
  21690842.874    21690850.702     5919170.440     4603802.410                  
       312.000         150.000  
  20319291.038    20319296.951     3174370.347     2468957.936                  
       958.000         462.000  
  23494204.972    23494209.237     4113975.000     3199765.571                  
       409.000         247.000  
  23231728.943    23231734.738    18181981.350    14141550.166                  
       191.000         165.000  
  26909521.422    26909563.578    25611674.487    19920038.079                  
       214.000         144.000  
 22 01 20 00 31 30.0000000  0 14G05G10G12G13G15G23G24G25G29R01R02R03
                                R13R24
  25167223.816    25167226.521    14077525.991    11118336.215                  
       268.000         223.000  
  27205212.870    27205219.600    12857833.803    10171261.614                  
       229.000         201.000  
  22963434.471    22963434.630    17636668.196    13896083.146                  
       756.000         503.000  
  20037369.710                      109298.193       85163.857    20037369.080  
       243.000          45.000  
  20637183.730    20637184.059     4982065.240     4035200.149                  
       507.000         333.000  
  25854093.478    25854095.728    23523615.972    18482270.877                  
       411.000         449.000  
  22222150.065    22222152.709     4240462.804     3455411.359                  
       260.000         337.000  
  26300969.784    26300979.939    33105107.080    25948844.389                  
       360.000         410.000  
  28362780.025    28362813.555    31289753.218    24531513.013                  
       198.000         171.000  
  21812056.229    21812063.534     6567125.305     5107767.263                  
       315.000         152.000  
  20482302.713    20482309.060     4044231.268     3145516.445                  
       997.000         475.000  
  23580179.105    23580183.539     4574201.935     3557719.823                  
       418.000         250.000  
  23399333.954    23399339.823    19076985.573    14837664.448                  
       190.000         163.000  
  26971734.332    26971774.890    25944379.519    20178814.315                  
       215.000         142.000  
 22 01 20 00 32 00.0000000  0 15G05G10G12G13G15G23G24G25G29R01R02R03
                                R12R13R24
  25297343.045    25297346.270    14761303.144    11651148.610                  
       270.000         225.000  
  27318815.075    27318822.990    13454804.082    10636429.911                  
       229.000         197.000  
  23149977.475    23149977.822    18616957.827    14659945.108                  
       744.000         505.000  
  20071733.802                      289881.436      225878.077    20071733.247  
       266.000          54.000  
  20765105.936    20765106.554     5654301.405     4559020.509                  
       532.000         347.000  
  26046643.906    26046646.338    24535471.719    19270728.798                  
       414.000         442.000  
  22312816.863    22312819.834     4716922.000     3826678.247                  
       267.000         343.000  
  26493640.606    26493653.148    34117557.721    26737756.728                  
       352.000         408.000  
  28466494.072    28466524.562    31834824.056    24956256.114                  
       205.000         165.000  
  21936994.051    21937001.033     7234985.896     5627214.331                  
       317.000         157.000  
  20651257.877    20651264.599     4945809.434     3846743.870                  
      1026.000         490.000  
  23670170.979    23670175.328     5055934.382     3932400.540                  
       420.000         251.000  
  20878506.919    20878513.369      162927.542      126725.243                  
       367.000         211.000  
  23567831.424    23567836.458    19976752.610    15537483.112                  
       187.000         162.000  
  27032154.360    27032193.979    26267491.259    20430129.134                  
       214.000         141.000  
 22 01 20 00 32 30.0000000  0 15G05G10G12G13G15G23G24G25G29R01R02R03
                                R12R13R24
  25427794.914    25427797.910    15446828.417    12185323.303                  
       276.000         224.000  
  27433664.520    27433673.392    14058323.543    11106699.909                  
       229.000         194.000  
  23338948.657    23338948.779    19610007.884    15433750.235                  
       732.000         504.000  
  20114351.897                      513840.016      400391.254    20114351.829  
       289.000          62.000  
  20899961.441    20899961.986     6362971.165     5111230.666                  
       575.000         364.000  
  26240072.401    26240075.512    25551940.781    20062781.172                  
       415.000         436.000  
  22407386.091    22407388.508     5213883.689     4213921.092                  
       277.000         352.000  
  26685783.484    26685800.625    35127206.242    27524478.194                  
       342.000         408.000  
  28568802.716    28568832.128    32372489.040    25375222.158                  
       126.000         102.000  
  22065412.701    22065420.449     7921456.868     6161136.120                  
       322.000         157.000  
  20825836.951    20825843.066     5877395.246     4571310.548                  
      1051.000         501.000  
  23764080.284    23764084.803     5558638.792     4323392.734                  
       423.000         254.000  
  20913368.804    20913374.792      349152.720      271567.044                  
       378.000         215.000  
  23737057.206    23737063.568    20880402.717    16240321.873                  
       186.000         158.000  
  27090774.050    27090812.301    26580988.280    20673967.157                  
       215.000         139.000  
 22 01 20 00 33 00.0000000  0 14G05G10G12G13G15G23G24G25G29R01R02R03
                                R12R13
  25558417.881    25558421.700    16133253.480    12720198.909                  
       267.000         226.000  
  27549637.134    27549647.312    14667736.008    11581560.371                  
       232.000         200.000  
  23530124.172    23530124.365    20614640.997    16216581.097                  
       712.000         500.000  
  20165107.460                      780562.500      608226.967    20165106.972  
       307.000          58.000  
  21041482.819    21041483.087     7106669.975     5690736.182                  
       604.000         380.000  
  26434159.408    26434163.298    26571868.513    20857528.161                  
       411.000         431.000  
  22505754.504    22505756.910     5730812.658     4616722.830                  
       286.000         355.000  
  26877248.834    26877273.403    36133243.151    28308372.383                  
       332.000         395.000  
  28669887.761    28669914.993    32903668.619   442661978.657                  
       115.000          68.000  
  22197070.209    22197076.937     8625243.796     6708525.850                  
       326.000         159.000  
  21005716.568    21005723.205     6837268.057     5317878.224                  
      1069.000         514.000  
  23861802.144    23861805.594     6081745.793     4730253.551                  
       425.000         256.000  
  20952480.337    20952486.721      558080.458      434066.407                  
       390.000         224.000  
  23906848.132    23906854.154    21787076.069    16945511.987                  
       184.000         159.000  
 22 01 20 00 33 30.0000000  0 13G05G10G12G13G15G23G24G25R01R02R03R12
                                R13
  25689055.210    25689059.481    16819750.864    13255130.283                  
       264.000         225.000  
  27666605.339    27666618.175    15282375.816    12060491.721                  
       234.000         194.000  
  23723283.028    23723283.149    21629697.103    17007533.773                  
       702.000         495.000  
  20223867.317                     1089347.355      848838.551    20223867.142  
       328.000          65.000  
  21189395.277    21189395.776     7883955.113     6296412.881                  
       639.000         394.000  
  26628688.980    26628693.396    27594116.508    21654082.542                  
       403.000         424.000  
  22607816.949    22607819.545     6267155.131     5034651.999                  
       295.000         362.000  
  27067891.928    27067930.187    37134869.299    29088807.051                  
       324.000         387.000  
  22331726.598    22331732.876     9345056.893     7268380.424                  
       332.000         160.000  
  21190573.506    21190579.711     7823699.326     6085102.483                  
      1077.000         519.000  
  23963221.601    23963226.169     6624653.977     5152515.282                  
       427.000         251.000  
  20995792.996    20995797.832      789445.897      614017.317                  
       399.000         228.000  
  24077048.138    24077053.443    22695933.376    17652400.715                  
       185.000         154.000  
 22 01 20 00 34 00.0000000  0 13G05G10G12G13G15G23G24G25R01R02R03R12
                                R13
  25819553.125    25819557.979    17505515.990    13789490.904                  
       261.000         226.000  
  27784442.703    27784457.932    15901573.454    12542972.818                  
       240.000         196.000  
  23918207.969    23918208.277    22654034.391    17805718.525                  
       708.000         487.000  
  20290481.702                     1439408.050     1121613.106    20290480.666  
       346.000          70.000  
  21343418.302    21343418.607     8693351.419     6927111.248                  
       667.000         415.000  
  26823447.473    26823452.260    28617563.036    22451569.826                  
       391.000         418.000  
  22713464.800    22713467.800     6822339.784     5467263.378                  
       296.000         367.000  
  27257571.406    27257630.993    38131301.734    29865162.141                  
       316.000         370.000  
  22469140.333    22469146.885    10079613.747     7839702.375                  
       339.000         163.000  
  21380083.408    21380089.691     8834960.209     6871638.637                  
      1082.000         526.000  
  24068221.079    24068226.355     7186729.335     5589684.761                  
       429.000         254.000  
  21043250.624    21043256.935     1042959.309      811194.450                  
       409.000         233.000  
  24247502.554    24247508.787    23606155.228    18360350.687                  
       180.000         151.000  
 22 01 20 00 34 30.0000000  0 13G05G10G12G13G15G23G24G25R01R02R03R12
                                R13
  25949763.375    25949768.485    18189765.576    14322670.323                  
       256.000         221.000  
  27903018.826    27903035.282    16524662.740    13028489.557                  
       244.000         193.000  
  24114685.714    24114686.118    23686531.196    18610261.314                  
       704.000         479.000  
  20364785.258                     1829877.692     1425875.175    20364785.313  
       359.000          78.000  
  21503266.379    21503266.965     9533359.146     7581662.687                  
       691.000         434.000  
  27018224.379    27018230.480    29641103.893    23249128.924                  
       381.000         410.000  
  22822586.881    22822589.538     7395779.613     5914099.605                  
       296.000         367.000  
  27446126.262    27446201.219    39121889.867    30636980.941                  
       303.000         342.000  
  22609074.289    22609081.426    10827642.030     8421502.099                  
       340.000         164.000  
  21573923.208    21573929.307     9869326.030     7676145.291                  
      1076.000         529.000  
  24176679.670    24176683.487     7767309.805     6041247.174                  
       436.000         254.000  
  21094796.334    21094802.485     1318307.017     1025353.820                  
       416.000         239.000  
  24418064.887    24418071.362    24516942.814    19068740.602                  
       176.000         147.000  
 22 01 20 00 35 00.0000000  0 13G05G10G12G13G15G23G24G25R01R02R03R12
                                R13
  26079540.550    26079546.013    18871738.648    14854075.495                  
       255.000         218.000  
  28022200.378    28022216.971    17150975.674    13516527.739                  
       251.000         197.000  
  24312506.531    24312507.475    24726085.881    19420303.748                  
       703.000         474.000  
  20446599.993                     2259813.728     1760890.276    20446599.391  
       383.000          83.000  
  21668650.346    21668651.019    10402458.182     8258882.694                  
       701.000         452.000  
  27212814.871    27212823.115    30663651.986    24045911.352                  
       365.000         399.000  
  22935068.038    22935071.189     7986872.881     6374691.778                  
       299.000         371.000  
  27633376.939    27633438.836    40106133.464    31403982.868                  
       311.000         346.000  
  22751293.405    22751300.682    11587882.709     9012800.393                  
       343.000         167.000  
  21771770.940    21771777.400    10925080.434     8497287.523                  
      1068.000         537.000  
  24288465.194    24288469.875     8365704.785     6506665.324                  
       441.000         257.000  
  21150366.326    21150371.966     1615151.893     1256233.229                  
       426.000         249.000  
  24588586.541    24588594.429    25427517.905    19776965.213                  
       170.000         145.000  
 22 01 20 00 35 30.0000000  0 13G05G10G12G13G15G23G24G25R01R02R03R12
                                R13
  26208744.035    26208750.599    19550696.664    15383130.614                  
       257.000         217.000  
  28141859.945    28141873.580    17779821.117    14006545.457                  
       254.000         195.000  
  24511464.910    24511464.922    25771617.069    20235003.159                  
       698.000         467.000  
  20535731.212                     2728204.277     2125869.910    20535731.110  
       405.000          90.000  
  21839278.420    21839279.258    11299114.644     8957575.996                  
       712.000         464.000  
  27407017.440    27407029.032    31684135.874    24841079.065                  
       358.000         391.000  
  23050791.982    23050794.401     8595004.642     6848560.686                  
       295.000         374.000  
  27819233.450    27819278.984    41083069.554    32165295.711                  
       305.000         334.000  
  22895563.679    22895571.011    12359091.125     9612629.094                  
       343.000         168.000  
  21973308.051    21973314.325    12000519.552     9333740.065                  
      1072.000         542.000  
  24403444.293    24403448.818     8981198.184     6985382.265                  
       445.000         256.000  
  21209893.070    21209899.205     1933134.299     1503552.880                  
       430.000         252.000  
  24758927.993    24758932.381    26337122.931    20484435.222                  
       165.000         140.000  
 22 01 20 00 36 00.0000000  0 13G05G10G12G13G15G23G24G25R01R02R03R12
                                R13
  26337238.943    26337245.875    20225923.015    15909276.573                  
       256.000         212.000  
  28261868.709    28261881.274    18410494.519    14497984.876                  
       255.000         192.000  
  24711358.663    24711359.152    26822065.875    21053534.428                  
       683.000         460.000  
  20631976.113                     3233973.603     2519975.854    20631975.600  
       424.000          92.000  
  22014857.173    22014857.454    12221785.834     9676540.498                  
       719.000         477.000  
  27600634.377    27600652.079    32701503.197    25633808.595                  
       349.000         377.000  
  23169638.674    23169641.305     9219548.147     7335217.931                  
       296.000         374.000  
  28003575.347    28003609.876    42051960.863    32920318.903                  
       307.000         312.000  
  23041656.711    23041663.197    13140040.558    10220034.097                  
       338.000         170.000  
  22178217.894    22178224.263    13093957.511    10184191.683                  
      1067.000         539.000  
  24521479.427    24521484.254     9613049.748     7476822.150                  
       450.000         255.000  
  21273305.910    21273311.389     2271873.644     1767016.813                  
       432.000         259.000  
  24928947.973    24928954.380    27245020.275    21190576.867                  
       164.000         137.000  
 22 01 20 00 36 30.0000000  0 13G05G10G12G13G15G23G24G25R01R02R03R12
                                R13
  26464892.322    26464901.105    20896725.446    16431973.894                  
       258.000         207.000  
  28382094.327    28382105.166    19042316.719    14990321.656                  
       257.000         195.000  
  24911991.229    24911991.921    27876395.019    21875089.291                  
       662.000         452.000  
  20735117.964                     3775987.433     2942324.276    20735117.094  
       445.000          96.000  
  22195091.770    22195092.359    13168924.753    10414570.763                  
       732.000         486.000  
  27793461.307    27793481.231    33714775.929    26423361.981                  
       344.000         365.000  
  23291487.150    23291489.666     9859866.103     7834166.951                  
       299.000         376.000  
  28186275.773    28186303.656    43012176.786    33668568.239                  
       258.000         277.000  
  23189346.088    23189353.145    13929523.221    10834076.017                  
       332.000         169.000  
  22386188.196    22386195.464    14203726.076    11047344.866                  
      1055.000         537.000  
  24642428.381    24642432.873    10260497.947     7980392.699                  
       450.000         255.000  
  21340529.561    21340535.382     2630969.817     2046313.841                  
       434.000         265.000  
  25098514.228    25098522.008    28150492.877    21894832.449                  
       162.000         132.000  
 22 01 20 00 37 00.0000000  0 12G05G10G12G13G15G23G24R01R02R03R12R13
  26591578.818    26591589.348    21562434.920    16950701.070                  
       257.000         206.000  
  28502416.979    28502426.298    19674635.083    15483042.514                  
       215.000         165.000  
  25113168.870    25113169.769    28933590.015    22698877.216                  
       645.000         447.000  
  20844930.790                     4353059.775     3391991.011    20844930.769  
       471.000         111.000  
  22379688.312    22379688.727    14138985.837    11170462.438                  
       757.000         497.000  
  27985300.363    27985314.870    34722983.906    27209000.756                  
       350.000         365.000  
  23416213.884    23416217.099    10515311.912     8344903.895                  
       303.000         381.000  
  23338409.231    23338416.644    14726352.103    11453831.614                  
       331.000         167.000  
  22596910.874    22596917.614    15328181.981    11921921.511                  
      1035.000         534.000  
  24766145.736    24766148.996    10922760.944     8495485.787                  
       450.000         256.000  
  21411485.101    21411491.375     3010002.619     2341117.129                  
       440.000         271.000  
  25267496.662    25267503.875    29052843.764    22596659.815                  
       161.000         130.000  
 22 01 20 00 37 30.0000000  0 12G05G10G12G13G15G23G24R01R02R03R12R13
  26717173.322    26717186.524    22222407.223    17464956.725                  
       259.000         200.000  
  28622983.030    28622994.381    20308220.685   336546882.177                  
        71.000          53.000  
  25314702.996    25314703.982    29992657.541    23524124.182                  
       625.000         439.000  
  20961181.104                     4963958.039     3868015.612    20961180.517  
       494.000         110.000  
  22568353.464    22568354.057    15130427.890    11943014.612                  
       783.000         499.000  
  28175979.632    28175991.214    35725059.505    27989851.160                  
       339.000         355.000  
  23543695.776    23543698.422    11185230.868     8866918.620                  
       308.000         381.000  
  23488628.524    23488636.572    15529362.579    12078395.103                  
       327.000         165.000  
  22810082.538    22810089.208    16465705.733    12806662.024                  
      1021.000         522.000  
  24892478.697    24892485.060    11599039.063     9021479.472                  
       446.000         253.000  
  21486091.277    21486097.754     3408534.915     2651086.714                  
       440.000         278.000  
  25435767.250    25435774.706    29951396.159    23295532.540                  
       162.000         127.000  
 22 01 20 00 38 00.0000000  0 11G05G12G13G15G23G24R01R02R03R12R13   
  26841559.378    26841574.393    22876020.188    17974256.059                  
       260.000         195.000  
  25516409.297    25516409.994    31052628.270    24350074.852                  
       614.000         429.000  
  21083626.174                     5607409.498     4369406.333    21083625.618  
       514.000         129.000  
  22760795.760    22760796.019    16141718.153    12731032.919                  
       799.000         505.000  
  28365344.075    28365353.601    36720208.819    28765300.193                  
       208.000         217.000  
  23673805.293    23673808.073    11868961.474     9399695.682                  
       320.000         386.000  
  23639792.340    23639800.842    16337413.879    12706879.201                  
       328.000         162.000  
  23025404.669    23025411.265    17614706.391    13700328.996                  
      1011.000         514.000  
  25021279.893    25021285.051    12288516.151     9557738.992                  
       443.000         251.000  
  21564262.495    21564268.692     3826112.712     2975869.451                  
       446.000         284.000  
  25603203.147    25603212.307    30845492.616    23990939.144                  
       158.000         124.000  
 22 01 20 00 38 30.0000000  0 11G05G12G13G15G19G24R01R02R03R12R13   
  26964621.722    26964639.082    23522674.223    18478131.504                  
       260.000         195.000  
  25718106.983    25718108.102    32112555.195    25175991.261                  
       606.000         418.000  
  21212016.737                     6282106.653     4895144.320    21212016.142  
       533.000         133.000  
  22956725.549    22956725.812    17171335.878    13533332.342                  
       801.000         506.000  
  19673941.363                      139342.088      108577.377    19673938.585  
       245.000          56.000  
  23806416.131    23806418.668    12565836.182     9942714.846                  
       327.000         389.000  
  23791688.716    23791697.405    17149389.905    13338415.831                  
       328.000         162.000  
  23242584.906    23242591.574    18773620.209    14601706.171                  
      1006.000         498.000  
  25152391.501    25152396.276    12990361.505    10103618.129                  
       438.000         246.000  
  21645911.616    21645917.199     4262266.417     3315100.089                  
       452.000         289.000  
  25769686.252    25769695.419    31734495.009    24682383.085                  
       158.000         118.000  
 22 01 20 00 39 00.0000000  0 11G05G12G13G15G19G24R01R02R03R12R13   
  27086251.028    27086271.863    24161793.854    18976134.443                  
       257.000         192.000  
  25919620.866    25919622.180    33171513.599    26001152.792                  
       594.000         405.000  
  21346098.834                     6986713.271     5444188.367    21346098.193  
       547.000         135.000  
  23155856.442    23155856.837    18217775.515    14348739.720                  
       783.000         507.000  
  19702279.471                      288258.316      224615.988    19702277.381  
       259.000          54.000  
  23941400.940    23941403.057    13275182.962    10495452.509                  
       334.000         388.000  
  23944116.911    23944123.841    17964199.596    13972156.335                  
       328.000         155.000  
  23461335.718    23461342.548    19940915.005    15509601.823                  
       995.000         489.000  
  25285655.447    25285660.636    13703732.024    10658461.172                  
       440.000         244.000  
  21730947.145    21730952.906     4716511.808     3668402.042                  
       461.000         291.000  
  25935102.109    25935110.963    32617784.518    25369382.757                  
       153.000         114.000  
 22 01 20 00 39 30.0000000  0 11G05G12G13G15G19G24R01R02R03R12R13   
  27206343.771    27206368.141    24792822.016    19467828.531                  
       253.000         189.000  
  26120778.740    26120780.584    34228602.072    26824857.010                  
       588.000         397.000  
  21485613.880                     7719869.696     6015479.021    21485613.415  
       563.000         140.000  
  23357905.461    23357905.712    19279548.648    15176095.266                  
       770.000         508.000  
  19739074.452                      481615.941      375284.228    19739071.694  
       279.000          61.000  
  24078629.803    24078632.307    13996326.117    11057382.139                  
       343.000         397.000  
  24096874.330    24096882.077    18780779.251    14607273.433                  
       331.000         156.000  
  23681375.875    23681382.842    21115089.700    16422848.459                  
       985.000         479.000  
  25420912.868    25420919.180    14427773.813    11221603.938                  
       442.000         242.000  
  21819276.472    21819283.162     5188351.694     4035388.595                  
       470.000         297.000  
  26099334.138    26099344.626    33494761.225    26051471.098                  
       148.000         110.000  
 22 01 20 00 40 00.0000000  0 11G05G12G13G15G19G24R01R02R03R12R13   
  27324798.541    27324827.544    25415234.718    19952807.967                  
       251.000         188.000  
  26321414.083    26321415.967    35282940.954    27646418.373                  
       571.000         386.000  
  21630299.608                     8480197.648     6607942.300    21630299.049  
       572.000         146.000  
  23562592.691    23562593.178    20355187.193    16014255.022                  
       753.000         502.000  
  19784229.208                      718906.301      560185.803    19784226.400  
       292.000          72.000  
  24217974.215    24217976.671    14728587.394    11627975.242                  
       345.000         397.000  
  24249770.031    24249778.841    19598092.172    15242960.751                  
       331.000         151.000  
  23902430.285    23902437.236    22294677.371    17340305.124                  
       954.000         463.000  
  25558002.136    25558009.528    15161623.412    11792374.821                  
       443.000         235.000  
  21910804.727    21910810.464     5677277.122     4415663.906                  
       482.000         297.000  
  26262277.938    26262290.394    34364842.529    26728193.784                  
       144.000         104.000  
 22 01 20 00 40 30.0000000  0 11G05G12G13G15G19G24R01R02R03R12R13   
  27441516.993    27441549.766    26028529.148    20430682.805                  
       244.000         184.000  
  26521363.140    26521365.712    36333673.351    28465169.053                  
       555.000         374.000  
  21779890.925                     9266305.799     7220494.036    21779890.472  
       577.000         146.000  
  23769643.203    23769643.856    21443244.900    16862092.042                  
       742.000         492.000  
  19837629.468                      999526.110      778850.578    19837626.561  
       308.000          82.000  
  24359305.727    24359308.376    15471286.554    12206701.733                  
       342.000         400.000  
  24402614.496    24402622.228    20415129.233    15878433.437                  
       327.000         152.000  
  24124230.406    24124237.855    23478243.480    18260856.062                  
       915.000         454.000  
  25696762.201    25696769.552    15904409.372    12370095.880                  
       441.000         232.000  
  22005433.339    22005439.203     6182767.444     4808823.002                  
       492.000         301.000  
  26423827.984    26423841.914    35227462.861    27399109.180                  
       139.000         101.000  
 22 01 20 00 41 00.0000000  0 11G05G12G13G15G19G24R01R02R03R12R13   
  27556407.118    27556443.650    26632229.498    20901085.974                  
       233.000         181.000  
  26720467.548    26720470.696    37379964.493    29280458.353                  
       533.000         367.000  
  21934121.756                    10076793.721     7852042.984    21934121.342  
       585.000         150.000  
  23978786.635    23978787.086    22542299.409    17718497.974                  
       739.000         478.000  
  19899142.862                     1322781.050     1030737.546    19899140.168  
       319.000          83.000  
  24502493.045    24502495.841    16223742.595    12793030.967                  
       340.000         399.000  
  24555223.583    24555230.846    21230909.186    16512928.206                  
       324.000         145.000  
  24346513.887    24346520.581    24664386.677    19183411.290                  
       878.000         428.000  
  25837028.231    25837035.177    16655254.645    12954084.896                  
       441.000         222.000  
  22103063.989    22103070.005     6704292.710     5214453.746                  
       504.000         297.000  
  26583881.117    26583899.049    36082079.697    28063795.968                  
       137.000          92.000  
 22 01 20 00 41 30.0000000  0 11G05G12G13G15G19G24R01R02R03R12R13   
  27669379.963    27669417.282    27225880.548    21363665.169                  
       221.000         176.000  
  26918572.845    26918576.367    38421000.864    30091651.984                  
       506.000         358.000  
  22092724.513                    10910256.710     8501494.579    22092724.397  
       587.000         152.000  
  24189756.468    24189756.999    23650953.418    18582384.021                  
       727.000         465.000  
  19968620.753                     1687890.035     1315238.063    19968617.820  
       333.000          92.000  
  24647408.027    24647410.879    16985274.565    13386432.359                  
       333.000         400.000  
  24707419.773    24707428.032    22044479.898    17145704.476                  
       319.000         147.000  
  24569023.729    24569031.103    25851740.724    20106908.148                  
       852.000         415.000  
  25978635.091    25978641.587    17413277.101    13543655.644                  
       431.000         220.000  
  22203595.901    22203601.467     7241313.929     5632136.881                  
       511.000         305.000  
  26742334.764    26742353.494    36928193.538    28721879.205                  
       133.000          89.000  
 22 01 20 00 42 00.0000000  0 11G05G12G13G15G19G24R01R02R03R12R13   
  27780348.260    27780383.469    27809064.209    21818104.578                  
       219.000         173.000  
  27115528.563    27115533.750    39455989.645    30898131.399                  
       489.000         345.000  
  22255431.864                    11765289.874     9167754.110    22255431.793  
       589.000         149.000  
  24402292.423    24402293.241    24767836.654    19452682.438                  
       715.000         450.000  
  20045899.278                     2093990.788     1631680.210    20045896.318  
       360.000          94.000  
  24793920.603    24793923.352    17755202.265    13986375.889                  
       328.000         400.000  
  24859029.304    24859038.896    22854917.924    17776044.080                  
       310.000         139.000  
  24791511.613    24791518.826    27038973.940    21030310.844                  
       830.000         385.000  
  26121418.208    26121424.730    18177591.563    14138119.427                  
       424.000         208.000  
  22306925.772    22306931.529     7793284.684     6061447.458                  
       517.000         291.000  
  26899090.047    26899108.771    37765311.837    29372983.696                  
       132.000          84.000  
 22 01 20 00 42 30.0000000  0 11G05G12G13G15G19G24R01R02R03R12R13   
  27889236.928    27889268.070    28381340.958    22264050.067                  
       208.000         169.000  
  27311189.303    27311196.351    40484158.125    31699292.768                  
       479.000         335.000  
  22421977.304                    12640491.758     9849729.536    22421976.818  
       595.000         152.000  
  24616138.867    24616139.700    25891606.174    20328346.791                  
       708.000         439.000  
  20130799.073                     2540144.544     1979332.493    20130796.470  
       396.000         104.000  
  24941901.163    24941904.501    18532846.868    14592332.574                  
       331.000         398.000  
  25009886.728    25009894.353    23661328.093    18403250.638                  
       305.000         139.000  
  25013733.915    25013741.492    28224790.031    21952611.087                  
       810.000         377.000  
  26265210.932    26265220.179    18947309.796    14736784.690                  
       416.000         209.000  
  22412950.933    22412956.848     8359651.328     6501954.838                  
       520.000         302.000  
  27054066.112    27054081.207    38592902.266    30016674.662                  
       125.000          84.000  
 22 01 20 00 43 00.0000000  0 12G02G05G12G13G15G17G19G24R01R02R03R12
  24077136.151                      150204.896      117042.632    24077134.134  
       190.000          25.000  
  27995972.754    27996000.235    28942312.427    22701188.802                  
       205.000         168.000  
  27505413.781    27505424.733    41504751.819    32494545.065                  
       467.000         326.000  
  22592095.338                    13534467.539    10546333.985    22592095.174  
       592.000         153.000  
  24831045.498    24831045.986    27020948.061    21208353.241                  
       680.000         437.000  
  20918614.897    20918614.642      115838.675      240661.173                  
       251.000         175.000  
  20223129.115                     3025342.078     2357408.499    20223126.619  
       424.000         123.000  
  25091222.322    25091225.085    19317531.760    15203775.171                  
       329.000         401.000  
  25159827.530    25159838.119    24462844.305    19026650.204                  
       296.000         135.000  
  25235453.835    25235462.701    29407924.927    22872825.600                  
       777.000         361.000  
  26409849.104    26409859.568    19721542.707    15338958.942                  
       411.000         206.000  
  22521566.309    22521572.133     8939854.936     6953224.309                  
       523.000         299.000  
 22 01 20 00 43 30.0000000  0 12G02G05G12G13G15G17G19G24R01R02R03R12
  24096998.311                      254585.556      198378.256    24096996.670  
       189.000          27.000  
  28100485.546    28100508.661    29491598.280    23129220.114                  
       195.000         155.000  
  27698061.034    27698076.584    42517052.534    33283333.594                  
       439.000         302.000  
  22765522.451                    14445832.469    11256488.396    22765522.117  
       569.000         138.000  
  25046768.284    25046768.902    28154576.421    22091699.758                  
       638.000         413.000  
  20961225.913    20961226.280      339761.123      415146.161                  
       262.000         177.000  
  20322684.628                     3548508.819     2765070.862    20322681.881  
       439.000         117.000  
  25241754.248    25241757.337    20108583.062    15820178.528                  
       316.000         385.000  
  25308698.557    25308709.318    25258629.382    19645591.438                  
       290.000         131.000  
  25456441.909    25456450.827    30587150.271    23789998.796                  
       731.000         345.000  
  26555166.604    26555179.355    20499402.095    15943950.527                  
       409.000         198.000  
  22632665.935    22632671.787     9533331.120     7414816.882                  
       521.000         296.000  
 22 01 20 00 44 00.0000000  0 12G02G05G12G13G15G17G19G24R01R02R03R12
  24119787.946                      374346.804      291698.787    24119785.801  
       193.000          29.000  
  28202709.792    28202728.647    30028848.620    23547871.182                  
       191.000         148.000  
  27888985.491    27888997.695    43520415.954    34065187.707                  
       438.000         291.000  
  22941997.562                    15373214.672    11979123.783    22941997.142  
       570.000         133.000  
  25263067.517    25263068.184    29291235.586    22977407.884                  
       624.000         405.000  
  21010433.616    21010433.118      598348.126      616642.501                  
       286.000         183.000  
  20429249.585                     4108512.058     3201436.988    20429247.237  
       477.000         137.000  
  25393370.433    25393373.585    20905330.464    16441020.359                  
       314.000         386.000  
  25456345.314    25456356.169    26047875.246    20259445.535                  
       288.000         122.000  
  25676473.478    25676483.521    31761271.173    24703200.999                  
       695.000         323.000  
  26700997.585    26701011.227    21280018.405    16551090.732                  
       402.000         187.000  
  22746144.482    22746149.905    10139512.022     7886290.906                  
       521.000         288.000  
 22 01 20 00 44 30.0000000  0 12G02G05G12G13G15G17G19G24R01R02R03R12
  24145535.960                      509653.619      397132.705    24145534.257  
       197.000          23.000  
  28302585.471    28302601.574    30553727.343    23956876.470                  
       189.000         141.000  
  28078067.899    28078077.326    44514092.910   406873561.683                  
       422.000         280.000  
  23121262.317                    16315257.168    12713182.775    23121261.890  
       557.000         125.000  
  25479710.166    25479711.082    30429700.089    23864522.724                  
       595.000         388.000  
  21066115.895    21066115.875      890963.052      844654.130                  
       309.000         187.000  
  20542598.888                     4704165.884     3665582.809    20542596.282  
       503.000         144.000  
  25545943.962    25545947.208    21707107.707    17065781.555                  
       303.000         377.000  
  25602625.562    25602637.564    26829801.354    20867604.547                  
       281.000         123.000  
  25895332.775    25895343.093    32929127.584    25611529.349                  
       663.000         325.000  
  26847168.572    26847179.908    22062540.492    17159733.144                  
       398.000         194.000  
  22861894.063    22861899.904    10757826.537     8367202.185                  
       516.000         299.000  
 22 01 20 00 45 00.0000000  0 12G02G05G12G13G15G17G19G24R01R02R03R12
  24174270.122                      660649.242      514791.617    24174267.370  
       197.000          34.000  
  28400049.829    28400065.146    31065931.449   377696107.307                  
       190.000         141.000  
  28265183.884    28265192.611    45497423.023   407639799.664                  
       378.000         260.000  
  23303062.089                    17270621.284    13457622.233    23303061.459  
       549.000         130.000  
  25696469.250    25696470.207    31568774.660    24752112.859                  
       566.000         393.000  
  21128143.191    21128142.509     1216915.886     1098643.333                  
       327.000         201.000  
  20662497.619                     5334237.127     4156547.374    20662494.826  
       532.000         160.000  
  25699348.710    25699351.614    22513252.834    17693946.267                  
       299.000         392.000  
  25747397.059    25747410.441    27603655.481    21469482.217                  
       278.000         121.000  
  26112807.884    26112820.610    34089588.939    26514103.100                  
       638.000         323.000  
  26993525.627    26993535.208    22846042.291    17769132.908                  
       395.000         195.000  
  22979808.355    22979814.332    11387701.553     8857104.948                  
       519.000         309.000  
 22 01 20 00 45 30.0000000  0 12G02G05G12G13G15G17G19G24R01R02R03R12
  24206011.694                      827454.922      644770.039    24206010.012  
       202.000          27.000  
  28495050.902    28495065.911    31565175.308   378085130.875                  
       190.000         131.000  
  28450744.068    28450754.879    46472544.628   421853544.044                  
        56.000          30.000  
  23487146.038                    18237987.862    14211414.241    23487145.927  
       548.000         123.000  
  25913122.637    25913123.809    32707293.982    25639270.231                  
       547.000         368.000  
  21196372.172    21196371.952     1575462.631     1378030.360                  
       347.000         202.000  
  20788703.102                     5997452.098     4673338.228    20788700.429  
       568.000         164.000  
  25853459.036    25853462.966    23323108.807    18325002.483                  
       301.000         377.000  
  25890526.602    25890543.329    28368713.897    22064514.460                  
       273.000         118.000  
  26328696.001    26328711.794    35241555.474    27410063.288                  
       612.000         304.000  
  27139908.005    27139914.734    23629649.959    18378609.570                  
       384.000         185.000  
  23099778.927    23099784.996    12028562.407     9355552.261                  
       521.000         303.000  
 22 01 20 00 46 00.0000000  0 11G02G05G11G13G15G17G19G24R01R02R12   
  24240780.922                     1010169.586      787145.066    24240779.536  
       204.000          30.000  
  28587558.985    28587572.824    32051315.374   378463942.702                  
        78.000          60.000  
  24084343.036    24084343.796       83569.832      217430.360                  
       178.000         181.000  
  23673267.002                    19216059.131    14973547.549    23673266.587  
       542.000         132.000  
  26129454.767    26129456.369    33844123.290    26525110.549                  
       526.000         368.000  
  21270653.046    21270652.149     1965810.415     1682197.432                  
       363.000         217.000  
  20920966.747                     6692501.850     5214935.366    20920964.228  
       591.000         197.000  
  26008152.249    26008155.822    24136024.040    18958442.418                  
       299.000         388.000  
  26031884.550    26031906.667    29124286.026    22652165.270                  
       270.000         114.000  
  26542797.258    26542816.612    36383974.129    28298594.778                  
       581.000         295.000  
  23221698.141    23221703.965    12679833.452     9862096.322                  
       529.000         318.000  
 22 01 20 00 46 30.0000000  0 10G02G11G13G15G17G19G24R01R02R12      
  24278592.826                     1208869.224      941975.927    24278590.305  
       205.000          35.000  
  24102561.794    24102562.311      179314.036      292036.213                  
       180.000         182.000  
  23861182.156                    20203559.823    15743028.453    23861181.689  
       534.000         128.000  
  26345255.009    26345256.655    34978158.531    27408773.456                  
       506.000         356.000  
  21350825.613    21350825.967     2387121.757     2010491.954                  
       374.000         225.000  
  21059033.829                     7418048.620     5780296.422    21059031.389  
       611.000         201.000  
  26163304.684    26163308.495    24951352.759    19593762.804                  
       293.000         380.000  
  26171345.070    26171370.591    29869708.879    23231919.759                  
       267.000         113.000  
  26754904.225    26754919.783    37515890.992    29178992.772                  
       561.000         288.000  
  23345458.544    23345464.436    13340939.356    10376289.727                  
       541.000         319.000  
 22 01 20 00 47 00.0000000  0 10G02G11G13G15G17G19G24R01R02R12      
  24319455.550                     1423605.541     1109302.885    24319454.368  
       216.000          37.000  
  24124202.804    24124203.480      293036.849      380651.400                  
       188.000         196.000  
  24050653.848                    21199239.609    16518882.664    24050653.512  
       551.000         136.000  
  26560319.488    26560321.808    36108325.468    28289421.795                  
       504.000         367.000  
  21436723.581    21436723.796     2838516.340     2362227.950                  
       406.000         243.000  
  21202644.990                     8172730.595     6368360.240    21202642.328  
       651.000         223.000  
  26318794.599    26318798.969    25768455.312    20230465.211                  
       298.000         389.000  
  26308789.880    26308820.996    30604343.550    23803279.989                  
       259.000         107.000  
  26964847.982    26964861.362    38636220.601    30050368.116                  
       537.000         273.000  
  23470952.262    23470958.636    14011305.324    10897685.423                  
       551.000         317.000  
 22 01 20 00 47 30.0000000  0 11G02G06G11G13G15G17G19G24R01R02R12   
  24363375.460                     1654406.211     1289147.551    24363374.015  
       219.000          43.000  
  20517801.676    20517805.678       76698.754      212447.850                  
       292.000         248.000  
  24149292.532    24149293.978      424885.132      483390.304                  
       191.000         194.000  
  24241448.753                    22201873.119    17300155.355    24241449.021  
       547.000         129.000  
  26774449.679    26774451.944    37233579.610    29166241.518                  
       489.000         356.000  
  21528171.445    21528170.987     3319077.769     2736691.396                  
       419.000         249.000  
  21351538.038                     8955167.601     6978051.393    21351535.164  
       677.000         243.000  
  26474502.095    26474506.721    26586698.509    20868056.183                  
       293.000         374.000  
  26444104.355    26444140.975    31327589.587    24365783.402                  
       256.000         103.000  
  27172486.934    27172499.418    39744203.636    30912161.997                  
       299.000         156.000  
  23598072.459    23598078.318    14690357.762    11425837.279                  
       564.000         314.000  
 22 01 20 00 48 00.0000000  0 10G02G06G11G13G15G17G19G24R01R12      
  24410353.330                     1901275.409     1481513.139    24410350.860  
       222.000          43.000  
  20537136.472    20537139.867      178302.313      291619.452                  
       296.000         262.000  
  24177855.155    24177855.226      574978.934      600346.513                  
       191.000         201.000  
  24433338.841                    23210261.213    18085912.154    24433338.694  
       533.000         127.000  
  26987452.154    26987454.877    38352906.003    30038441.588                  
       466.000         355.000  
  21624988.781    21624988.215     3827855.513     3133141.554                  
       429.000         258.000  
  21505446.918                     9763965.297     7608283.316    21505444.309  
       695.000         255.000  
  26630307.628    26630312.055    27405455.695    21506047.368                  
       289.000         372.000  
  26577171.988    26577209.198    32038896.463    24919017.553                  
       250.000         100.000  
  23726711.846    23726717.413    15377524.753    11960300.405                  
       566.000         311.000  
 22 01 20 00 48 30.0000000  0 11G02G06G11G13G15G17G19G24R01R12R22   
  24460384.499                     2164192.464     1686383.540    24460383.352  
       222.000          40.000  
  20564597.290    20564600.622      322609.532      404066.609                  
       315.000         271.000  
  24209906.075    24209906.239      743410.101      731591.547                  
       193.000         199.000  
  24626100.814                    24223231.354    18875239.346    24626100.572  
       517.000         121.000  
  27199139.562    27199143.410    39465318.823    30905253.464                  
       446.000         342.000  
  21726988.215    21726988.474     4363868.380     3550813.895                  
       436.000         264.000  
  21664105.554                    10597720.897     8257962.931    21664102.745  
       710.000         264.000  
  26786093.098    26786098.334    28224107.384    22143955.926                  
       281.000         357.000  
  26707884.106    26707915.701    32737743.004    25462593.632                  
       241.000         102.000  
  23856763.250    23856769.271    16072236.498    12500631.670                  
       569.000         322.000  
  19913755.493    19913762.260      472307.386      367353.839                  
       238.000          91.000  
 22 01 20 00 49 00.0000000  0 11G02G06G11G13G15G17G19G24R01R12R22   
  24513461.121                     2443111.659     1903723.124    24513460.104  
       226.000          42.000  
  20600158.034    20600161.145      509482.111      549681.579                  
       324.000         292.000  
  24245458.815    24245459.441      930242.358      877175.114                  
       196.000         207.000  
  24819516.885                    25239639.241    19667245.267    24819516.739  
       499.000         121.000  
  27409330.647    27409335.862    40569860.768    31765930.658                  
       437.000         340.000  
  21833979.253    21833979.202     4926109.318     3988923.690                  
       443.000         278.000  
  21827245.651                    11455027.370     8925993.871    21827242.903  
       723.000         277.000  
  26941742.418    26941748.448    29042041.142    22781304.432                  
       281.000         352.000  
  26836153.763    26836178.701    33423533.800    25996015.852                  
       237.000          98.000  
  23988121.239    23988127.187    16773926.635    13046390.538                  
       566.000         311.000  
  20052742.490    20052746.127     1214226.327      944401.841                  
       252.000          94.000  
 22 01 20 00 49 30.0000000  0 11G02G06G11G13G15G17G19G24R01R12R22   
  24569569.664                     2737962.784     2133477.115    24569567.864  
       226.000          36.000  
  20643773.607    20643776.845      738685.098      728281.291                  
       338.000         314.000  
  24284519.949    24284520.851     1135510.324     1037124.157                  
       201.000         214.000  
  25013374.806                    26258368.207    20461059.809    25013374.614  
       480.000         123.000  
  27617848.622    27617855.636    41665603.687    32619749.501                  
       424.000         336.000  
  21945765.083    21945764.944     5513548.961     4446668.837                  
       446.000         293.000  
  21994599.311                    12334476.676     9611278.960    21994596.507  
       726.000         296.000  
  27097140.773    27097147.392    29858652.196    23417621.516                  
       274.000         353.000  
  26961895.535    26961916.803    34095732.349    26518847.879                  
       227.000         101.000  
  24120680.103    24120686.428    17482031.928    13597138.967                  
       559.000         328.000  
  20198470.154    20198477.690     1992133.645     1549440.802                  
       263.000         103.000  
 22 01 20 00 50 00.0000000  0 11G02G06G11G13G15G17G19G24R01R12R22   
  24628692.115                     3048650.592     2375571.411    24628690.389  
       226.000          48.000  
  20695381.893    20695385.539     1009888.497      939608.591                  
       353.000         331.000  
  24327090.968    24327091.231     1359219.741     1211443.157                  
       208.000         223.000  
  25207467.310                    27278329.743    21255834.694    25207467.674  
       459.000         121.000  
  27824522.347    27824531.037    42751649.994    33466011.517                  
       410.000         324.000  
  22062146.874    22062146.292     6125138.821     4923232.345                  
       449.000         301.000  
  22165899.515                    13234665.060    10312724.379    22165896.825  
       729.000         309.000  
  27252174.333    27252181.979    30673344.079    24052442.579                  
       272.000         343.000  
  27085012.210    27085032.981    34753888.199    27030752.398                  
       233.000         107.000  
  24254335.243    24254341.855    18195992.344    14152441.332                  
       551.000         338.000  
  20350650.295    20350656.985     2804479.697     2181265.431                  
       277.000         112.000  
 22 01 20 00 50 30.0000000  0 11G02G06G11G13G15G17G19G24R01R12R22   
  24690804.915                     3375055.480     2629912.749    24690803.091  
       225.000          47.000  
  20754902.305    20754906.062     1322669.682     1183334.159                  
       367.000         347.000  
  24373166.874    24373167.249     1601347.192     1400113.808                  
       208.000         225.000  
  25401592.917                    28298464.303    22050744.380    25401593.196  
       451.000         114.000  
  28029181.788    28029189.684    43827151.019    34304066.764                  
       403.000         315.000  
  22182921.773    22182921.432     6759815.406     5417785.507                  
       456.000         310.000  
  22340880.194                    14154194.654    11029240.855    22340877.639  
       721.000         312.000  
  27406730.801    27406739.135    31485530.202    24685311.735                  
       269.000         335.000  
  27205422.199    27205441.458    35397554.178    27531383.017                  
       212.000          99.000  
  24388982.202    24388988.533    18915252.221    14711865.466                  
       542.000         338.000  
  20508985.170    20508991.958     3649681.432     2838644.462                  
       286.000         118.000  
 22 01 20 00 51 00.0000000  0 11G02G06G11G13G14G15G17G19G24R12R22   
  24755880.806                     3717033.031     2896388.559    24755879.217  
       227.000          46.000  
  20822237.233    20822240.895     1676515.829     1459058.381                  
       387.000         363.000  
  24422736.037    24422737.868     1861839.385     1603094.583                  
       214.000         226.000  
  25595554.884                    29317740.610    22844985.208    25595555.325  
       441.000         113.000  
  20750257.541    20750257.280      170094.921      284775.210                  
       242.000         246.000  
  28231669.048    28231676.017    44891244.031    35133233.593                  
       385.000         307.000  
  22307885.490    22307884.830     7416503.124     5929490.172                  
       459.000         316.000  
  22519277.374                    15091677.823    11759747.118    22519274.829  
       713.000         325.000  
  27560697.826    27560705.548    32294637.464    25315786.306                  
       269.000         321.000  
  24524518.398    24524524.730    19639260.333    15274982.645                  
       541.000         337.000  
  20673173.890    20673179.510     4526130.852     3520327.236                  
       298.000         122.000  
 22 01 20 00 51 30.0000000  0 11G02G06G11G13G14G15G17G19G24R12R22   
  24823889.109                     4074414.765     3174867.554    24823887.109  
       227.000          43.000  
  20897272.298    20897275.716     2070827.464     1766314.138                  
       406.000         376.000  
  24475785.630    24475786.607     2140614.140     1820321.481                  
       216.000         232.000  
  25789163.127                    30335156.478    23637776.185    25789163.903  
       435.000         115.000  
  20776922.704    20776922.719      310220.805      393964.141                  
       260.000         256.000  
  28431831.135    28431837.933    45943107.530    35952869.147                  
       369.000         286.000  
  22436831.307    22436830.487     8094117.642     6457501.413                  
       470.000         325.000  
  22700829.525                    16045740.126    12503172.180    22700826.905  
       704.000         322.000  
  27713966.408    27713972.947    33100092.375    25943419.027                  
       270.000         316.000  
  24660840.886    24660847.239    20367470.255    15841367.805                  
       538.000         341.000  
  20842910.848    20842917.192     5432200.853     4225048.228                  
       306.000         128.000  
 22 01 20 00 52 00.0000000  0 12G02G06G11G13G14G15G17G19G24G30R12R22
  24894790.860                     4447007.473     3465199.221    24894789.422  
       222.000          50.000  
  20979877.729    20979881.332     2504921.811     2104569.394                  
       423.000         395.000  
  24532292.664    24532294.003     2437559.808     2051707.509                  
       221.000         236.000  
  25982232.138                    31349738.001    24428358.382    25982232.939  
       429.000         110.000  
  20809716.584    20809716.732      482555.454      528250.783                  
       272.000         264.000  
  28629776.972    28629782.492    46983310.387   395493556.253                  
       115.000          75.000  
  22569551.938    22569551.600     8791568.818     7000969.781                  
       482.000         333.000  
  22885277.794                    17015022.045    13258456.664    22885275.161  
       698.000         326.000  
  27866432.963    27866438.673    33901314.687    26567749.778                  
       268.000         316.000  
  20599071.041    20599073.600      186615.546      296104.624                  
       305.000         239.000  
  24797848.806    24797855.472    21099340.350    16410599.649                  
       534.000         341.000  
  21017890.572    21017895.797     6366251.423     4951531.883                  
       309.000         136.000  
 22 01 20 00 52 30.0000000  0 12G02G06G11G13G14G17G19G24G30R11R12R22
  24968546.513                     4834594.177     3767214.422    24968544.815  
       221.000          48.000  
  21069908.518    21069912.197     2978037.111     2473230.603                  
       435.000         411.000  
  24592230.535    24592231.464     2752535.538     2297142.910                  
       223.000         238.000  
  26174582.226                    32360539.248    25215994.615    26174583.171  
       415.000         100.000  
  20848596.691    20848596.928      686869.811      687456.728                  
       293.000         277.000  
  22705839.301    22705838.771     9507763.293     7559043.297                  
       487.000         340.000  
  23072366.842                    17998181.416    14024554.736    23072364.444  
       684.000         321.000  
  28017989.736    28017995.395    34697754.710    27188353.090                  
       261.000         305.000  
  20640779.176    20640781.547      405793.127      466892.346                  
       312.000         252.000  
  19901511.173    19901515.824      517362.781      402398.839                  
       544.000         368.000  
  24935441.900    24935448.495    21834334.355    16982261.092                  
       534.000         342.000  
  21197802.471    21197809.939     7326634.733     5698496.550                  
       321.000         138.000  
 22 01 20 00 53 00.0000000  0 12G02G06G11G13G14G17G19G24G30R11R12R22
  25045109.518                     5236935.004     4080726.219    25045109.293  
       217.000          46.000  
  21167205.794    21167209.510     3489336.909     2871645.978                  
       447.000         428.000  
  24655567.475    24655568.582     3085371.599     2556495.431                  
       226.000         243.000  
  26366038.533                    33366643.407    25999970.242    26366040.205  
       399.000          98.000  
  20893508.301    20893508.348      922882.758      871362.862                  
       310.000         289.000  
  22845485.288    22845484.629    10241608.150     8130870.385                  
       489.000         347.000  
  23261845.289                    18993896.379    14800436.395    23261842.891  
       667.000         321.000  
  28168637.315    28168642.213    35489409.089    27805226.767                  
       159.000         188.000  
  20688888.824    20688892.163      658612.976      663894.826                  
       321.000         262.000  
  19993758.800    19993763.088     1010304.776      785798.090                  
       567.000         381.000  
  25073520.331    25073526.637    22571921.965    17555939.789                  
       525.000         339.000  
  21382338.914    21382344.709     8311701.988     6464659.846                  
       330.000         140.000  
 22 01 20 00 53 30.0000000  0 11G02G06G11G13G14G17G19G30R11R12R22   
  25124430.902                     5653766.489     4405529.333    25124429.889  
       216.000          43.000  
  21271596.684    21271599.995     4037914.480     3299108.937                  
       454.000         442.000  
  24722264.860    24722266.449     3435869.421     2829610.321                  
       224.000         251.000  
  26556432.840                    34367160.833    26779591.554    26556435.150  
       386.000         102.000  
  20944388.931    20944388.996     1190262.692     1079710.790                  
       328.000         301.000  
  22988282.830    22988282.444    10992012.301     8715600.784                  
       487.000         349.000  
  23453465.333                    20000864.958    15585087.088    23453462.773  
       651.000         318.000  
  20743293.506    20743296.155      944509.936      886671.661                  
       336.000         275.000  
  20092094.579    20092098.809     1535780.817     1194501.582                  
       588.000         406.000  
  25211985.580    25211992.601    23311577.437    18131226.619                  
       516.000         342.000  
  21571191.162    21571196.822     9319806.651     7248741.097                  
       339.000         147.000  
 22 01 20 00 54 00.0000000  0 11G02G06G11G13G14G17G19G30R11R12R22   
  25206454.939                     6084802.736     4741400.802    25206453.749  
       215.000          42.000  
  21382896.383    21382899.659     4622798.331     3754862.508                  
       463.000         454.000  
  24792280.585    24792281.450     3803802.045     3116310.631                  
       226.000         249.000  
  26745601.297                    35361229.082    27554185.612    26745604.063  
       377.000          89.000  
  21001166.645    21001166.341     1488629.076     1312203.973                  
       344.000         306.000  
  23134024.160    23134023.862    11757889.687     9312388.182                  
       478.000         350.000  
  23646983.290                    21017808.600    16377510.525    23646980.872  
       629.000         300.000  
  20803874.759    20803877.507     1262867.012     1134742.069                  
       345.000         286.000  
  20196362.976    20196367.621     2092959.624     1627862.763                  
       608.000         414.000  
  25350741.244    25350748.825    24052781.763    18707717.775                  
       506.000         334.000  
  21764051.953    21764057.947    10349310.347     8049466.036                  
       348.000         149.000  
 22 01 20 00 54 30.0000000  0 11G02G06G11G13G14G17G19G30R11R12R22   
  25291123.113                     6529736.028     5088100.928    25291123.368  
       213.000          40.000  
  21500908.578    21500912.210     5242956.682     4238102.678                  
       463.000         466.000  
  24865565.935    24865567.221     4188915.374     3416398.430                  
       225.000         254.000  
  26933385.107                    36348010.608    28323098.029    26933391.065  
       371.000          86.000  
  21063758.956    21063759.309     1817554.184     1568509.168                  
       363.000         320.000  
  23282505.166    23282504.829    12538161.196     9920391.813                  
       468.000         350.000  
  23842160.865                    22043472.713    17176729.081    23842158.568  
       610.000         305.000  
  20870506.494    20870509.281     1613018.200     1407587.094                  
       353.000         295.000  
  20306400.885    20306404.704     2680967.267     2085201.974                  
       626.000         425.000  
  25489691.598    25489699.170    24795021.160    19285013.453                  
       490.000         331.000  
  21960616.884    21960622.626    11398585.296     8865568.574                  
       348.000         150.000  
 22 01 20 00 55 00.0000000  0 11G02G06G11G13G14G17G19G30R11R12R22   
  25378374.130                     6988236.252     5445372.092    25378375.038  
       211.000          42.000  
  21625426.631    21625430.736     5897303.042     4747982.863                  
       471.000         475.000  
  24942065.862    24942067.983     4590927.608     3729654.087                  
       226.000         259.000  
  27119634.323                    37326691.657    29085690.660    27119643.571  
       366.000          80.000  
  21132076.146    21132076.418     2176564.747     1848257.588                  
       382.000         330.000  
  23433521.645    23433521.066    13331755.918    10538777.122                  
       462.000         347.000  
  24038763.736                    23076627.807    17981784.743    24038761.801  
       591.000         300.000  
  20943052.800    20943055.477     1994251.760     1704652.150                  
       366.000         308.000  
  20422036.703    20422041.180     3298890.253     2565808.603                  
       647.000         433.000  
  25628740.851    25628749.017    25537788.477    19862719.167                  
       477.000         324.000  
  22160583.179    22160589.694    12466019.143     9695794.670                  
       343.000         151.000  
 22 01 20 00 55 30.0000000  0 11G02G06G11G13G14G17G19G30R11R12R22   
  25468141.245                     7459952.925     5812940.840    25468141.909  
       212.000          40.000  
  21756234.257    21756238.045     6584701.095     5283617.551                  
       478.000         484.000  
  25021724.907    25021726.131     5009530.653     4055837.574                  
       227.000         262.000  
  27304202.256                    38296475.023    29841333.318    27304219.726  
       355.000          70.000  
  21206020.771    21206020.916     2565144.046     2151046.489                  
       398.000         345.000  
  23586871.225    23586871.363    14137614.046    11166718.237                  
       449.000         343.000  
  24236563.427                    24116069.960    18791739.269    24236561.391  
       573.000         290.000  
  21021370.547    21021372.973     2405813.279     2025349.303                  
       378.000         321.000  
  20543093.849    20543097.654     3945780.541     3068945.317                  
       665.000         439.000  
  25767795.794    25767804.886    26280581.763    20440443.775                  
       465.000         318.000  
  22363652.748    22363659.280    13550017.371    10538904.082                  
       338.000         151.000  
 22 01 20 00 56 00.0000000  0 11G02G06G11G13G14G17G19G30R11R12R22   
  25560352.700                     7944519.217     6190522.894    25560353.393  
       212.000          40.000  
  21893106.803    21893110.527     7303970.375     5844086.928                  
       481.000         487.000  
  25104476.585    25104478.235     5444390.009     4394688.036                  
       227.000         266.000  
  27486948.465                    39256601.423    30589427.851    27486977.635  
       348.000          47.000  
  21285485.423    21285485.824     2982734.792     2476441.814                  
       411.000         355.000  
  23742355.501    23742355.270    14954688.006    11803398.978                  
       445.000         343.000  
  24435335.579                    25160621.981    19605675.366    24435333.768  
       559.000         276.000  
  21105308.426    21105311.229     2846909.585     2369060.587                  
       388.000         330.000  
  20669387.608    20669392.431     4620658.431     3593850.188                  
       682.000         445.000  
  25906764.418    25906774.819    27022905.805    21017801.484                  
       452.000         309.000  
  22569530.449    22569537.327    14649005.904    11393672.509                  
       334.000         151.000  
 22 01 20 00 56 30.0000000  0 10G02G06G11G14G17G19G30R11R12R22      
  25654934.696                     8441546.296     6577815.535    25654936.703  
       216.000          46.000  
  22035812.068    22035815.623     8053891.487     6428441.064                  
       493.000         494.000  
  25190253.346    25190255.101     5895147.984     4745927.477                  
       231.000         270.000  
  21370357.615    21370357.833     3428740.212     2823978.502                  
       433.000         369.000  
  23899776.957    23899777.307    15781944.519    12448014.381                  
       446.000         343.000  
  24634860.971                    26209134.370    20422697.768    24634859.177  
       552.000         264.000  
  21194708.869    21194711.220     3316711.823     2735140.296                  
       408.000         343.000  
  20800730.832    20800735.267     5322517.286     4139740.387                  
       707.000         452.000  
  26045554.591    26045566.680    27764274.885    21594415.712                  
       446.000         304.000  
  22777926.475    22777932.274    15761435.396    12258895.283                  
       342.000         148.000  
 22 01 20 00 57 00.0000000  0 10G02G06G11G14G17G19G30R11R12R22      
  25751810.078                     8950622.292     6974496.023    25751812.360  
       214.000          38.000  
  22184111.600    22184114.985     8833209.767     7035701.981                  
       503.000         500.000  
  25278982.257    25278984.422     6361420.285     5109255.926                  
       230.000         271.000  
  21460516.125    21460516.476     3902526.890     3193162.822                  
       445.000         385.000  
  24058942.463    24058943.272    16618363.957    13099769.549                  
       449.000         341.000  
  24834926.574                    27260483.810    21241930.612    24834924.768  
       536.000         245.000  
  21289407.714    21289410.380     3814358.070     3122916.505                  
       419.000         352.000  
  20936930.395    20936934.547     6050325.452     4705813.284                  
       729.000         467.000  
  26184077.549    26184091.356    28504204.735    22169908.197                  
       438.000         302.000  
  22988553.864    22988561.381    16885780.042    13133385.251                  
       342.000         151.000  
 22 01 20 00 57 30.0000000  0 10G02G06G11G14G17G19G30R11R12R22      
  25850898.137                     9471322.012     7380233.266    25850901.171  
       218.000          43.000  
  22337760.576    22337764.336     9640641.899     7664869.697                  
       505.000         506.000  
  25370586.333    25370588.909     6842799.256     5484355.543                  
       231.000         272.000  
  21555834.727    21555835.052     4403427.722     3583474.982                  
       456.000         398.000  
  24219661.333    24219661.133    17462943.358    13757882.867                  
       442.000         337.000  
  25035323.565                    28313575.493    22062520.774    25035322.451  
       522.000         238.000  
  21389235.927    21389238.838     4338958.241     3531695.735                  
       432.000         358.000  
  21077789.323    21077793.843     6803031.180     5291250.827                  
       747.000         476.000  
  26322244.897    26322261.791    29242214.587    22743901.759                  
       431.000         291.000  
  23201133.387    23201139.776    18020541.547    14015977.077                  
       346.000         146.000  
 22 01 20 00 58 00.0000000  0 10G02G06G11G14G17G19G30R11R12R22      
  25952114.049                    10003203.385     7794683.373    25952117.678  
       223.000          50.000  
  22496511.328    22496515.224    10474880.236     8314925.332                  
       513.000         508.000  
  25464983.682    25464986.518     7338855.605     5870891.880                  
       237.000         275.000  
  21656179.656    21656179.780     4930744.281     3994370.858                  
       464.000         410.000  
  24381745.295    24381745.313    18314698.216    14421587.483                  
       440.000         337.000  
  25235849.889                    29367342.890    22883637.183    25235848.709  
       501.000         230.000  
  21494019.008    21494021.676     4889596.721     3960764.519                  
       445.000         369.000  
  21223107.879    21223112.076     7579566.658     5895222.655                  
       764.000         488.000  
  26459969.650    26459992.649    29977834.053    23316029.444                  
       426.000         282.000  
  23415389.014    23415396.320    19164250.607    14905527.996                  
       346.000         143.000  
 22 01 20 00 58 30.0000000  0 10G02G06G11G14G17G19G30R11R12R22      
  26055371.150                    10545805.466     8217486.101    26055375.245  
       215.000          35.000  
  22660110.028    22660113.964    11334597.012     8984834.275                  
       516.000         510.000  
  25562088.302    25562090.816     7849138.262     6268513.489                  
       237.000         277.000  
  21761412.932    21761413.581     5483748.790     4425283.385                  
       474.000         422.000  
  24545010.355    24545010.837    19172661.128    15090129.581                  
       432.000         337.000  
  25436307.219                    30420746.341    23704469.421    25436306.254  
       483.000         224.000  
  21603579.040    21603581.087     5465335.967     4409392.382                  
       455.000         376.000  
  21372682.573    21372686.861     8378849.600     6516887.002                  
       774.000         503.000  
  26597159.836    26597181.622    30710648.202    23885989.917                  
       366.000         308.000  
  23631051.132    23631058.219    20315467.521    15800918.154                  
       346.000         145.000  
 22 01 20 00 59 00.0000000  0 10G02G06G11G14G17G19G30R11R12R22      
  26160578.013                    11098658.119     8648277.537    26160582.624  
       221.000          39.000  
  22828301.677    22828305.749    12218448.853     9673549.714                  
       519.000         508.000  
  25661810.052    25661813.003     8373177.105     6676854.869                  
       243.000         287.000  
  21871391.078    21871391.671     6061686.533     4875624.138                  
       483.000         433.000  
  24709276.858    24709277.484    20035882.900    15762768.957                  
       432.000         336.000  
  25636502.972                    31472776.072    24524231.083    25636502.731  
       467.000         202.000  
  21717733.033    21717735.587     6065219.143     4876833.573                  
       462.000         383.000  
  21526310.210    21526314.751     9199787.170     7155393.668                  
       772.000         515.000  
  26733720.451    26733740.921    31440217.826    24453448.090                  
       363.000         263.000  
  23847856.906    23847864.295    21472783.600    16701052.140                  
       340.000         138.000  
 22 01 20 00 59 30.0000000  0 10G02G06G11G14G17G19G30R11R12R22      
  26267641.082                    11661269.039     9086672.659    26267646.951  
       253.000          42.000  
  23000827.951    23000831.947    13125081.739    10380017.034                  
       520.000         507.000  
  25764054.779    25764058.276     8910480.174     7095532.491                  
       244.000         280.000  
  21985965.535    21985966.170     6663781.289     5344789.288                  
       495.000         443.000  
  24874366.893    24874366.684    20903439.034    16438787.368                  
       423.000         337.000  
  25836250.562                    32522448.969    25342155.911    25836250.792  
       453.000         198.000  
  21836296.487    21836299.060     6688275.278     5362332.130                  
       469.000         386.000  
  21683783.910    21683788.526    10041280.448     7809888.727                  
       761.000         527.000  
  26869586.909    26869602.607    32166006.043    25017963.443                  
       455.000         238.000  
  24065546.129    24065552.785    22634821.014    17604858.275                  
       329.000         143.000  
 22 01 20 01 00 00.0000000  0 10G02G06G11G14G17G19G30R11R12R22      
  26376466.176                    12233133.125     9532276.929    26376473.186  
       232.000          39.000  
  23177430.260    23177434.202    14053132.253    11103173.314                  
       522.000         508.000  
  25868726.819    25868730.835     9460537.072     7524148.458                  
       247.000         285.000  
  22104984.540    22104985.259     7289231.233     5832152.874                  
       509.000         457.000  
  25040108.381    25040108.591    21774415.850    17117470.405                  
       411.000         337.000  
  26035368.539                    33568809.802    26157499.394    26035369.496  
       461.000         194.000  
  21959081.946    21959084.513     7333518.282     5865118.926                  
       469.000         391.000  
  21844897.453    21844901.894    10902222.559     8479510.355                  
       752.000         533.000  
  27004668.928    27004682.823    32887641.055    25579254.306                  
       361.000         198.000  
  24283867.378    24283874.799    23800234.261    18511290.030                  
       322.000         137.000  
 22 01 20 01 00 30.0000000  0 10G02G06G11G14G17G19G30R11R12R22      
  26486954.171                    12813737.752     9984692.318    26486961.408  
       227.000          37.000  
  23357847.949    23357851.897    15001233.918    11841953.796                  
       520.000         502.000  
  25975725.798    25975729.554    10022818.970     7962290.264                  
       245.000         280.000  
  22228292.669    22228293.125     7937218.400     6337077.886                  
       523.000         466.000  
  25206332.362    25206332.765    22647927.029    17798128.127                  
       404.000         335.000  
  26233680.363                    34610928.874    26969536.033    26233682.249  
       456.000         184.000  
  22085900.474    22085903.383     7999954.023     6384419.500                  
       471.000         394.000  
  22009443.615    22009447.836    11781506.584     9163397.847                  
       742.000         535.000  
  27138887.974    27138899.328    33604647.358    26136929.215                  
       396.000         242.000  
  24502575.718    24502584.826    24967709.632    19419325.362                  
       316.000         134.000  
 22 01 20 01 01 00.0000000  0  9G02G06G11G14G17G19G30R11R22         
  26599005.720                    13402553.244    10443505.382    26599014.293  
       249.000          45.000  
  23541821.369    23541825.082    15968019.130    12595292.634                  
       524.000         499.000  
  26084947.873    26084951.092    10596781.172     8409533.172                  
       251.000         281.000  
  22355730.277    22355731.262     8606906.708     6858912.477                  
       533.000         475.000  
  25372873.799    25372874.856    23523104.156    18480083.094                  
       401.000         333.000  
  26431015.290                    35647903.494    27777561.045    26431018.986  
       439.000         172.000  
  22216561.417    22216564.052     8686580.775     6919453.099                  
       472.000         400.000  
  22177214.962    22177219.854    12678024.538     9860689.110                  
       738.000         535.000  
  24721430.773    24721439.795    26135966.033    20327967.580                  
       306.000         132.000  
 22 01 20 01 01 30.0000000  0 11G01G02G06G07G11G14G17G19G30R11R22   
  23972956.638    23972959.900      314175.940      393916.297                  
       132.000         137.000  
  26712516.093                    13999041.741    10908297.654    26712526.333  
       259.000          47.000  
  23729090.241    23729094.397    16952123.751    13362127.238                  
       525.000         498.000  
  21213798.128    21213798.372      168479.665      281339.712                  
       308.000         191.000  
  26196285.313    26196288.735    11181864.173     8865441.494                  
       255.000         276.000  
  22487136.041    22487136.494     9297448.969     7396997.725                  
       544.000         487.000  
  25539572.003    25539573.643    24399100.045    19162674.965                  
       368.000         329.000  
  26627208.316                    36678858.229    28580891.003    26627214.417  
       403.000         147.000  
  22350873.046    22350875.831     9392393.876     7469437.386                  
       473.000         400.000  
  22348004.749    22348009.632    13590673.095    10570526.930                  
       741.000         539.000  
  24940198.998    24940207.076    27303754.445    21236244.842                  
       298.000         128.000  
 22 01 20 01 02 00.0000000  0 11G01G02G06G07G11G14G17G19G30R11R22   
  24027123.436    24027126.508      598824.088      615720.323                  
       130.000         138.000  
  26827382.931                    14602653.485    11378640.739    26827392.962  
       269.000          53.000  
  23919396.264    23919400.129    17952188.669    14141398.762                  
       525.000         490.000  
  21259414.434    21259414.328      408196.358      468132.155                  
       316.000         198.000  
  26309630.263    26309633.534    11777494.770     9329569.142                  
       253.000         273.000  
  22622345.893    22622346.019    10007981.526     7950659.656                  
       548.000         498.000  
  25706268.541    25706270.001    25275099.829    19845273.185                  
       379.000         320.000  
  26822098.183                    37702942.624    29378861.309    26822108.782  
       415.000         187.000  
  22488644.123    22488646.841    10116385.612     8033586.935                  
       468.000         397.000  
  22521606.743    22521611.270    14518351.064    11292054.498                  
       741.000         536.000  
  25158652.322    25158662.306    28469860.737    22143213.165                  
       284.000         126.000  
 22 01 20 01 02 30.0000000  0 11G01G02G06G07G11G14G17G19G30R11R22   
  24082947.861    24082950.619      892184.711      844313.140                  
       132.000         137.000  
  26943498.401                    15212829.780    11854099.439    26943509.576  
       255.000          44.000  
  24112481.948    24112486.047    18966861.271    14932052.772                  
       524.000         487.000  
  21309585.500    21309584.620      671847.621      673574.795                  
       332.000         203.000  
  26424869.924    26424873.577    12383083.587     9801456.075                  
       259.000         271.000  
  22761193.651    22761194.194    10737632.858     8519219.195                  
       553.000         507.000  
  25872811.835    25872812.555    26150293.529    20527243.137                  
       376.000         315.000  
  27015527.418                    38719345.879    30170843.800    27015542.993  
       304.000          83.000  
  22629682.480    22629685.183    10857548.767     8611116.714                  
       472.000         399.000  
  22697816.786    22697821.025    15459963.196    12024419.568                  
       737.000         530.000  
  25376569.243    25376580.478    29633100.489    23047950.335                  
       272.000         121.000  
 22 01 20 01 03 00.0000000  0 11G01G02G06G07G11G14G17G19G30R11R22   
  24140323.883    24140327.317     1193696.295     1079257.264                  
       135.000         134.000  
  27060754.198                    15828999.923    12334227.662    27060766.456  
       254.000          49.000  
  24308092.345    24308096.025    19994799.920    15733043.900                  
       523.000         480.000  
  21364228.373    21364227.589      958995.261      897326.290                  
       343.000         209.000  
  26541891.421    26541895.060    12998030.620    10280634.883                  
       266.000         263.000  
  22903512.494    22903512.966    11485523.535     9101991.189                  
       553.000         506.000  
  26039053.225    26039054.361    27023897.917    21207973.623                  
       371.000         307.000  
  27207345.100                    39727273.996    30956232.019    27207365.514  
       344.000          67.000  
  22773797.888    22773800.154    11614879.108     9201244.274                  
       474.000         391.000  
  22876430.786    22876435.356    16414423.308    12766777.456                  
       726.000         524.000  
  25593736.318    25593747.414    30792320.284    23949557.627                  
       265.000         120.000  
 22 01 20 01 03 30.0000000  0 11G01G02G06G07G11G14G17G19G30R11R22   
  24199144.529    24199147.505     1502800.337     1320117.409                  
       134.000         139.000  
  27179043.322                    16450587.434    12818575.632    27179057.366  
       259.000          45.000  
  24505974.071    24505977.893    21034675.243    16543336.276                  
       513.000         479.000  
  21423253.010    21423252.692     1269174.855     1139024.705                  
       357.000         221.000  
  26660576.728    26660581.178    13621724.316    10766628.896                  
       269.000         263.000  
  23049133.860    23049134.205    12250768.010     9698285.583                  
       547.000         518.000  
  26204848.253    26204849.119    27895154.339    21886874.156                  
       368.000         308.000  
  27397399.790                    40725981.468    31734438.524    27397422.626  
       342.000         108.000  
  22920799.392    22920801.611    12387377.087     9803190.764                  
       481.000         398.000  
  23057247.729    23057252.286    17380654.084    13518290.236                  
       720.000         530.000  
  25809944.705    25809960.556    31946397.418    24847159.526                  
       255.000         120.000  
 22 01 20 01 04 00.0000000  0 11G01G02G06G07G11G14G17G19G30R11R22   
  24259305.090    24259307.621     1818943.015     1566462.245                  
       136.000         140.000  
  27298252.256                    17077012.642    13306693.029    27298268.638  
       270.000          51.000  
  24705877.176    24705881.178    22085171.741    17361904.744                  
       493.000         476.000  
  21486568.716    21486568.473     1601898.453     1398289.770                  
       360.000         230.000  
  26780809.436    26780813.790    14253542.198    11258952.904                  
       269.000         263.000  
  23197888.154    23197888.522    13032476.316    10307408.768                  
       537.000         521.000  
  26370056.594    26370057.959    28763324.444    22563369.177                  
       359.000         304.000  
  27585542.785                    41714768.713    32504940.669    27585560.002  
       461.000         111.000  
  23070497.931    23070500.336    13174049.215    10416181.910                  
       477.000         397.000  
  23240068.004    23240072.579    18357588.900    14278128.183                  
       715.000         535.000  
  26024990.075    26025012.572    33094240.640    25739904.245                  
       237.000         103.000  
 22 01 20 01 04 30.0000000  0 11G01G02G03G06G07G11G14G17G30R11R22   
  24320699.021    24320702.035     2141575.309     1817863.915                  
       135.000         140.000  
  27418267.835                    17707701.638    13798140.243    27418283.070  
       254.000          49.000  
  20761376.137    20761379.568      220679.893      321799.674                  
       271.000         237.000  
  24907553.928    24907558.119    23144990.120    18187736.954                  
       481.000         470.000  
  21554076.650    21554076.643     1956656.158     1674724.427                  
       373.000         237.000  
  26902467.932    26902473.284    14892852.546    11757114.335                  
       273.000         259.000  
  23349605.438    23349606.051    13829756.940    10928666.317                  
       539.000         520.000  
  26534541.181    26534543.303    29627691.560    23236900.157                  
       360.000         301.000  
  23222706.577    23222709.214    13973910.746    11039450.514                  
       484.000         399.000  
  23424693.845    23424698.659    19344173.378    15045471.442                  
       716.000         529.000  
  26238673.269    26238701.131    34234810.931    26626992.693                  
       238.000         115.000  
 22 01 20 01 05 00.0000000  0 11G01G02G03G06G07G11G14G17G30R11R22   
  24383226.305    24383229.624     2470154.321     2073899.251                  
       139.000         142.000  
  27538974.899                    18342065.133    14292460.441    27538986.644  
       256.000          42.000  
  20814003.611    20814006.391      497237.467      537299.093                  
       289.000         248.000  
  25110761.048    25110765.069    24212848.334    19019833.881                  
       466.000         467.000  
  21625676.232    21625676.888     2332917.007     1967914.705                  
       380.000         245.000  
  27025431.305    27025437.215    15539016.012    12260614.920                  
       271.000         259.000  
  23504116.627    23504116.984    14641717.115    11561362.455                  
       536.000         518.000  
  26698171.021    26698173.281    30487560.070    23906924.815                  
       356.000         297.000  
  23377239.806    23377242.490    14785986.582    11672236.809                  
       484.000         398.000  
  23610930.996    23610935.820    20339366.377    15819510.200                  
       713.000         528.000  
  26450794.903    26450819.878    35367129.816    27507686.973                  
       190.000          93.000  
 22 01 20 01 05 30.0000000  0 11G01G02G03G06G07G11G14G17G30R11R22   
  24446782.203    24446784.798     2804144.981     2334151.585                  
       140.000         139.000  
  27660264.114                    18979481.947    14789158.507    27660274.231  
       254.000          49.000  
  20874113.593    20874116.251      813118.179      783439.934                  
       307.000         258.000  
  25315257.315    25315261.760    25287482.840    19857210.945                  
       456.000         460.000  
  21701263.935    21701264.000     2730131.189     2277432.233                  
       389.000         253.000  
  27149576.332    27149583.223    16191386.609    12768951.641                  
       274.000         258.000  
  23661251.335    23661251.925    15467464.791    12204802.032                  
       536.000         522.000  
  26860817.126    26860820.872    31342255.271    24572916.940                  
       357.000         293.000  
  23533913.505    23533915.741    15609312.273    12313789.193                  
       483.000         399.000  
  23798586.894    23798591.442    21342140.722    16599445.497                  
       712.000         522.000  
  26661167.447    26661188.586    36490205.313    28381215.224                  
       183.000          79.000  
 22 01 20 01 06 00.0000000  0 11G01G02G03G06G07G11G14G17G30R11R22   
  24511267.709    24511271.214     3143019.882     2598210.106                  
       144.000         145.000  
  27782020.571                    19619350.696    15287766.232    27782028.309  
       255.000          45.000  
  20941536.686    20941539.202     1167429.026     1059526.400                  
       324.000         270.000  
  25520806.855    25520811.348    26367650.115    20698899.310                  
       442.000         453.000  
  21780730.533    21780730.388     3147731.690     2602835.373                  
       398.000         262.000  
  27274778.469    27274786.159    16849310.745    13281614.956                  
       272.000         259.000  
  23820840.387    23820840.837    16306110.800    12858292.450                  
       536.000         523.000  
  27022356.119    27022361.461    32191122.546    25234365.693                  
       355.000         289.000  
  23692546.878    23692549.595    16442936.296    12963366.424                  
       480.000         397.000  
  23987471.601    23987476.769    22351483.930    17384490.001                  
       702.000         515.000  
  26869618.767    26869633.860    37603029.166    29246763.021                  
       192.000          92.000  
 22 01 20 01 06 30.0000000  0 11G01G02G03G06G07G11G14G17G30R11R22   
  24576583.641    24576586.992     3486260.356     2865670.664                  
       149.000         146.000  
  27904129.404                    20261061.268    15787806.104    27904136.438  
       258.000          48.000  
  21016089.125    21016091.940     1559205.922     1364807.214                  
       345.000         284.000  
  25727175.963    25727180.779    27452126.993    21543945.748                  
       437.000         449.000  
  21863965.403    21863965.047     3585135.233     2943669.401                  
       409.000         269.000  
  27400913.242    27400921.848    17512132.737    13798095.263                  
       275.000         257.000  
  23982715.181    23982715.387    17156768.962    13521143.062                  
       537.000         521.000  
  27182667.801    27182675.018    33033527.643    25890775.518                  
       351.000         280.000  
  23852961.405    23852963.609    17285920.065    13620237.025                  
       480.000         398.000  
  24177399.128    24177404.254    23366399.187    18173868.373                  
       688.000         511.000  
  27075985.183    27075999.927    38704620.785    30103555.450                  
       168.000          77.000  
 22 01 20 01 07 00.0000000  0 11G01G02G03G06G07G11G14G17G30R11R22   
  24642634.617    24642636.476     3833356.321     3136135.423                  
       148.000         147.000  
  28026475.290                    20904007.472    16288806.769    28026481.610  
       262.000          47.000  
  21097575.719    21097577.974     1987418.838     1698479.668                  
       358.000         300.000  
  25934137.504    25934141.785    28539711.915    22391413.984                  
       426.000         444.000  
  21950855.660    21950855.109     4041745.081     3299469.331                  
       415.000         274.000  
  27527852.048    27527861.118    18179192.603    14317879.890                  
       271.000         255.000  
  24146707.946    24146708.403    18018557.768    14192666.932                  
       534.000         525.000  
  27341635.925    27341646.827    33868859.537    26541670.286                  
       351.000         273.000  
  24014980.780    24014983.098    18137339.332    14283680.747                  
       470.000         395.000  
  24368186.255    24368191.277    24385905.612    18966817.724                  
       673.000         502.000  
  27280089.824    27280099.509    39794121.336    30950944.766                  
       140.000          61.000  
 22 01 20 01 07 30.0000000  0 10G01G02G03G06G07G11G14G17G30R11      
  24709323.062    24709325.874     4183807.913     3409214.462                  
       150.000         148.000  
  28148941.339                    21547581.678    16790295.807    28148946.845  
       260.000          50.000  
  21185787.692    21185790.673     2450977.872     2059694.507                  
       372.000         313.000  
  26141465.074    26141469.925    29629225.166    23240384.605                  
       416.000         442.000  
  22041284.599    22041283.980     4516952.041     3669760.481                  
       423.000         278.000  
  27655468.296    27655477.870    18849827.690    14840454.280                  
       265.000         255.000  
  24312652.435    24312652.696    18890601.481    14872181.559                  
       530.000         519.000  
  27499148.957    27499164.149    34696524.698    27186586.243                  
       342.000         267.000  
  24178432.633    24178434.978    18996285.027    14952989.118                  
       463.000         394.000  
  24559651.787    24559656.735    25409038.831    19762587.858                  
       651.000         493.000  
 22 01 20 01 08 00.0000000  0 10G01G02G03G06G07G11G14G17G30R11      
  24776558.262    24776561.421     4537127.250     3684527.786                  
       153.000         148.000  
  28271441.191                    22191332.599    17291923.156    28271445.347  
       161.000          21.000  
  21280508.216    21280511.089     2948738.451     2447559.857                  
       388.000         331.000  
  26348940.159    26348945.224    30719509.641    24089955.746                  
       408.000         437.000  
  22135134.244    22135133.943     5010136.009     4054059.662                  
       428.000         282.000  
  27783635.697    27783644.226    19523364.133    15365291.143                  
       267.000         253.000  
  24480382.910    24480383.272    19772031.333    15559009.968                  
       527.000         518.000  
  27655097.421    27655116.935    35515957.638    27825085.275                  
       343.000         256.000  
  24343146.901    24343149.677    19861864.180    15627466.324                  
       456.000         389.000  
  24751618.629    24751623.670    26434851.759    20560442.060                  
       636.000         485.000  
 22 01 20 01 08 30.0000000  0  9G01G03G06G07G11G14G17G30R11         
  24844247.623    24844251.322     4892838.227     3961704.757                  
       155.000         152.000  
  21381510.199    21381513.101     3479507.182     2861145.818                  
       396.000         349.000  
  26556346.881    26556352.489    31809431.168    24939243.359                  
       396.000         433.000  
  22232285.158    22232284.643     5520667.424     4451876.316                  
       433.000         286.000  
  27912226.292    27912233.812    20199129.162    15891865.600                  
       266.000         254.000  
  24649735.831    24649736.220    20661986.156    16252481.059                  
       522.000         517.000  
  27809372.850    27809396.599    36326621.102    28456755.665                  
       338.000         246.000  
  24508956.969    24508959.415    20733200.295    16306429.386                  
       445.000         388.000  
  24943913.551    24943919.023    27462414.071    21359656.641                  
       623.000         477.000  
 22 01 20 01 09 00.0000000  0  9G01G03G06G07G11G14G17G30R11         
  24912303.310    24912307.381     5250476.330     4240383.495                  
       160.000         154.000  
  21488558.411    21488561.067     4042047.781     3299489.097                  
       405.000         365.000  
  26763473.660    26763480.037    32897879.044    25787381.573                  
       385.000         423.000  
  22332615.659    22332615.725     6047908.856     4862713.821                  
       439.000         286.000  
  28041112.805    28041119.206    20876446.677    16419649.020                  
       264.000         248.000  
  24820548.658    24820549.408    21559613.753    16951930.913                  
       521.000         511.000  
  27961866.693    27961888.031    37128030.172    29081242.297                  
       337.000         242.000  
  24675698.631    24675700.898    21609434.222    16989208.896                  
       439.000         383.000  
  25136365.103    25136370.615    28490813.758    22159522.232                  
       615.000         464.000  
 22 01 20 01 09 30.0000000  0  9G01G03G06G07G11G14G17G30R11         
  24980641.316    24980644.579     5609589.581     4520211.995                  
       162.000         154.000  
  21601409.722    21601412.719     4635086.050     3761596.775                  
       411.000         376.000  
  26970114.695    26970122.299    33983765.779    26633522.447                  
       376.000         413.000  
  22436003.521    22436003.601     6591216.369     5286070.375                  
       441.000         287.000  
  28170167.528    28170173.591    21554641.447    16948114.143                  
       264.000         244.000  
  24992661.275    24992661.817    22464070.836    17656702.465                  
       512.000         507.000  
  28112484.618    28112498.204    37919654.372    29698123.207                  
       340.000         238.000  
  24843212.186    24843214.915    22489724.117    17675148.955                  
       429.000         380.000  
  25328806.174    25328811.788    29519156.124    22959342.925                  
       608.000         454.000  
 22 01 20 01 10 00.0000000  0 10G01G03G06G07G11G14G17G30R07R11      
  25049174.829    25049178.644     5969738.479     4800847.663                  
       164.000         158.000  
  21719816.436    21719819.169     5257316.427     4246451.690                  
       411.000         389.000  
  27176067.419    27176076.655    35066027.531    27476836.241                  
       364.000         399.000  
  22542325.520    22542325.143     7149940.859     5721440.214                  
       441.000         293.000  
  28299261.762    28299268.325    22233045.460    17476742.704                  
       263.000         237.000  
  25165915.031    25165915.558    23374524.154    18366146.441                  
       503.000         499.000  
  28261147.649    28261159.580    38700920.717    30306911.024                  
       335.000         230.000  
  25011340.940    25011343.343    23373246.026    18363607.513                  
       425.000         379.000  
  20177796.578    20177801.552       23489.785       18271.614                  
       391.000         200.000  
  25521072.974    25521079.178    30546564.188    23758436.352                  
       599.000         439.000  
 22 01 20 01 10 30.0000000  0 10G01G03G06G07G11G14G17G30R07R11      
  25117825.425    25117828.025     6330496.939     5081958.436                  
       163.000         159.000  
  21843524.152    21843527.052     5907405.799     4753014.774                  
       413.000         396.000  
  27381134.851    27381146.093    36143626.646    28316514.735                  
       361.000         384.000  
  22651456.516    22651456.242     7723428.823     6168313.941                  
       448.000         293.000  
  28428269.985    28428274.700    22910991.519    18005013.896                  
       256.000         230.000  
  25340153.072    25340153.867    24290150.821    19079621.635                  
       494.000         491.000  
  28407760.579    28407770.761    39471388.573    30907279.242                  
       338.000         225.000  
  25179931.396    25179934.127    24259193.983    19053956.529                  
       420.000         380.000  
  20194223.098    20194226.694      111415.223       86658.063                  
       396.000         220.000  
  25713004.841    25713011.260    31572178.839    24556133.949                  
       583.000         424.000  
 22 01 20 01 11 00.0000000  0 11G01G03G06G07G11G14G17G30R07R09R11   
  25186512.556    25186515.380     6691452.290     5363222.538                  
       168.000         163.000  
  21972275.883    21972278.589     6584000.599     5280231.479                  
       414.000         404.000  
  27585120.706    27585132.526    37215564.050    29151787.043                  
       357.000         374.000  
  22763272.552    22763272.173     8311025.347     6626181.357                  
       451.000         295.000  
  28557241.723    28557246.783    23588742.084   363040586.125                  
       111.000          95.000  
  25515221.091    25515221.963    25210138.664    19796495.062                  
       483.000         484.000  
  28552234.046    28552243.349    40230612.186    31498884.879                  
       338.000         221.000  
  25348833.535    25348836.119    25146780.225    19745582.086                  
       415.000         378.000  
  20218354.276    20218357.544      240590.263      187127.587                  
       404.000         242.000  
  20415451.749    20415456.661      200106.547      155646.187                  
       369.000         238.000  
  25904444.431    25904452.319    32595158.264    25351780.308                  
       561.000         411.000  
 22 01 20 01 11 30.0000000  0 11G01G03G06G07G09G14G17G30R07R09R11   
  25255161.543    25255164.762     7052205.758     5644328.941                  
       173.000         168.000  
  22105810.854    22105813.432     7285730.505     5827034.008                  
       422.000         411.000  
  27787832.776    27787842.040    38280868.123    29981905.368                  
       356.000         365.000  
  22877648.227    22877647.893     8912073.825     7094530.830                  
       454.000         299.000  
  21473414.268    21473416.141      120403.978      246262.750                  
       284.000         239.000  
  25690966.702    25690967.648    26133687.448    20516143.249                  
       475.000         479.000  
  28694610.039    28694619.390    40978804.639    32081891.721                  
       163.000         103.000  
  25517900.982    25517903.740    26035235.699    20437884.905                  
       407.000         373.000  
  20250183.875    20250186.578      410977.663      319651.164                  
       428.000         264.000  
  20459131.851    20459136.691      433354.282      337061.110                  
       382.000         242.000  
  26095238.910    26095248.315    33614678.353    26144733.449                  
       541.000         401.000  
 22 01 20 01 12 00.0000000  0 10G01G03G06G07G09G14G30R07R09R11      
  25323699.840    25323702.897     7412373.939     5924979.236                  
       173.000         168.000  
  22243865.443    22243868.035     8011213.300     6392345.263                  
       422.000         413.000  
  27989095.670    27989104.373    39338528.944    30806060.722                  
       352.000         351.000  
  22994458.718    22994458.021     9525916.753     7572850.020                  
       455.000         300.000  
  21496342.283    21496343.723      240889.023      340147.230                  
       291.000         262.000  
  25867239.832    25867240.599    27060008.127    21237951.266                  
       469.000         474.000  
  25686991.303    25686994.291    26923809.742    21130280.082                  
       406.000         376.000  
  20289687.050    20289691.422      622445.527      484126.193                  
       468.000         283.000  
  20507638.074    20507642.844      692373.988      538520.903                  
       396.000         251.000  
  26285237.572    26285249.549    34629931.803    26934364.269                  
       527.000         392.000  
 22 01 20 01 12 30.0000000  0 10G01G03G06G07G09G14G30R07R09R11      
  25392055.462    25392058.926     7771588.118     6204886.429                  
       173.000         175.000  
  22386175.871    22386178.601     8759059.888     6975082.830                  
       416.000         406.000  
  28188728.873    28188737.652    40387611.126    31623527.560                  
       332.000         332.000  
  23113578.827    23113578.322    10151897.912     8060627.560                  
       453.000         299.000  
  21525918.682    21525920.651      396317.786      461260.576                  
       302.000         289.000  
  26043892.925    26043893.921    27988323.993    21961313.809                  
       461.000         469.000  
  25855964.603    25855967.800    27811770.441    21822197.299                  
       394.000         369.000  
  20336824.403    20336827.493      874768.111      680377.104                  
       510.000         302.000  
  20560880.987    20560885.453      976691.131      759656.471                  
       401.000         258.000  
  26474293.643    26474309.405    35640132.891    27720061.881                  
       512.000         381.000  
 22 01 20 01 13 00.0000000  0 10G01G03G06G07G09G14G30R07R09R11      
  25460162.411    25460164.899     8129493.099     6483773.474                  
       174.000         177.000  
  22532477.319    22532479.991     9527877.991     7574161.812                  
       421.000         406.000  
  28386609.628    28386618.418    41427478.777    32433814.012                  
       198.000         202.000  
  23234884.457    23234884.073    10789362.500     8557353.193                  
       451.000         301.000  
  21562130.358    21562132.255      586609.146      609539.567                  
       317.000         312.000  
  26220780.281    26220781.585    28917870.667    22685635.136                  
       458.000         462.000  
  26024685.777    26024688.237    28698404.288    22513080.531                  
       390.000         367.000  
  20391532.660    20391535.498     1167627.175      908156.388                  
       548.000         310.000  
  20618767.385    20618772.149     1285801.373     1000075.557                  
       411.000         268.000  
  26662258.171    26662275.126    36644536.405    28501258.645                  
       491.000         368.000  
 22 01 20 01 13 30.0000000  0  9G01G03G07G09G14G30R07R09R11         
  25527956.430    25527958.976     8485749.061     6761375.573                  
       176.000         179.000  
  22682504.345    22682507.359    10316276.403     8188498.182                  
       419.000         403.000  
  23358251.128    23358250.488    11437658.919     9062519.239                  
       453.000         307.000  
  21604947.247    21604949.153      811614.391      784868.326                  
       336.000         332.000  
  26397759.361    26397760.786    29847896.287    23410329.326                  
       455.000         455.000  
  26193022.127    26193024.976    29583016.296    23202388.239                  
       386.000         362.000  
  20453737.649    20453741.000     1500614.679     1167146.680                  
       571.000         317.000  
  20681197.337    20681201.399     1619173.045     1259364.638                  
       416.000         276.000  
  26848987.615    26849000.367    37642415.133    29277401.096                  
       478.000         363.000  
 22 01 20 01 14 00.0000000  0  9G01G03G07G09G14G30R07R09R11         
  25595373.776    25595377.221     8840031.080     7037439.418                  
       176.000         180.000  
  22835993.984    22835996.685    11122868.364     8817011.335                  
       416.000         402.000  
  23483555.632    23483555.260    12096138.777     9575620.435                  
       449.000         305.000  
  21654329.373    21654331.380     1071118.041      987078.962                  
       358.000         350.000  
  26574688.956    26574690.935    30777661.644    24134820.188                  
       441.000         445.000  
  26360844.943    26360847.983    30464929.899    23889593.196                  
       380.000         360.000  
  20523345.139    20523348.894     1873234.191     1456961.848                  
       582.000         317.000  
  20748066.006    20748070.861     1976248.772     1537090.186                  
       423.000         289.000  
  27034355.117    27034367.905    38632968.190    30047831.972                  
       456.000         350.000  
 22 01 20 01 14 30.0000000  0 10G01G03G04G07G09G14G30R07R09R11      
  25662356.645    25662360.037     9192029.489     7311723.720                  
       173.000         180.000  
  22992683.120    22992685.835    11946274.898     9458626.747                  
       408.000         400.000  
  19787690.410    19787691.383       67525.580      205673.287                  
       220.000         283.000  
  23610675.614    23610674.523    12764157.764    10096154.726                  
       442.000         308.000  
  21710222.466    21710224.629     1364838.674     1215952.161                  
       379.000         360.000  
  26751431.265    26751433.568    31706440.262    24858541.432                  
       428.000         434.000  
  26528029.315    26528032.465    31343486.577    24574182.207                  
       380.000         355.000  
  20600249.036    20600252.514     2284904.783     1777150.052                  
       581.000         314.000  
  20819265.204    20819269.668     2356447.559     1832800.339                  
       433.000         303.000  
  27218223.824    27218237.413    39615501.440    30812022.659                  
       438.000         338.000  
 22 01 20 01 15 00.0000000  0 10G01G03G04G07G09G14G30R07R09R11      
  25728849.771    25728852.504     9541450.136     7583999.445                  
       172.000         179.000  
  23152311.047    23152314.250    12785127.937    10112278.411                  
       395.000         395.000  
  19804315.908    19804316.369      154890.959      273750.191                  
       248.000         296.000  
  23739488.781    23739488.238    13441076.827    10623624.156                  
       434.000         306.000  
  21772561.546    21772563.116     1692430.714     1471218.700                  
       396.000         366.000  
  26927850.930    26927854.276    32633518.455    25580936.624                  
       413.000         427.000  
  26694452.859    26694456.529    32218045.927    25255656.207                  
       373.000         348.000  
  20684323.188    20684327.650     2734964.250     2127196.278                  
       584.000         315.000  
  20894681.891    20894686.661     2759166.720     2146026.353                  
       447.000         319.000  
  27400578.429    27400592.090    40589951.236    31569928.568                  
       237.000         180.000  
 22 01 20 01 15 30.0000000  0  9G01G03G04G07G09G14G30R07R09         
  25794798.535    25794801.867     9888013.802     7854048.969                  
       167.000         182.000  
  23314621.699    23314624.301    13638073.065    10776910.897                  
       387.000         391.000  
  19829925.621    19829926.680      289473.064      378619.351                  
       272.000         311.000  
  23869875.063    23869874.634    14126262.479    11157535.065                  
       430.000         305.000  
  21841267.447    21841269.217     2053485.779     1752560.268                  
       410.000         367.000  
  27103814.481    27103819.423    33558195.969    26301459.990                  
       396.000         415.000  
  26859997.481    26860001.883    33087985.521    25933530.099                  
       367.000         343.000  
  20775431.870    20775435.999     3222673.375     2506525.571                  
       588.000         325.000  
  20974198.735    20974203.254     3183783.630     2476283.909                  
       459.000         330.000  
 22 01 20 01 16 00.0000000  0  9G01G03G04G07G09G14G30R07R09         
  25860152.789    25860156.977    10231456.573     8121666.664                  
       165.000         184.000  
  23479358.281    23479361.233    14503771.957    11451481.385                  
       380.000         389.000  
  19864468.720    19864469.096      470997.226      520066.761                  
       298.000         328.000  
  24001715.542    24001714.928    14819087.444    11697398.642                  
       421.000         305.000  
  21916252.562    21916254.748     2447535.006     2059611.566                  
       420.000         367.000  
  27279192.131    27279197.995    34479784.366    27019574.307                  
       381.000         407.000  
  27024548.691    27024552.744    33952700.285    26607332.211                  
       365.000         337.000  
  20873421.035    20873425.357     3747219.272     2914505.649                  
       601.000         340.000  
  21057696.714    21057701.324     3629657.936     2823074.995                  
       472.000         347.000  
 22 01 20 01 16 30.0000000  0  9G01G03G04G07G09G14G30R07R09         
  25924866.838    25924870.638    10571529.475     8386658.422                  
       162.000         181.000  
  23646271.174    23646274.701    15380904.644    12134961.338                  
       378.000         384.000  
  19907871.068    19907871.593      699078.217      697792.203                  
       321.000         342.000  
  24134891.352    24134890.635    15518931.121    12242731.311                  
       415.000         306.000  
  21997416.102    21997417.754     2874051.145     2391961.791                  
       423.000         368.000  
  27453855.118    27453863.345    35397608.024    27734752.230                  
       370.000         396.000  
  27187993.931    27187998.817    34811602.756    27276604.603                  
       359.000         331.000  
  20978127.657    20978132.025     4307720.330     3350450.821                  
       624.000         361.000  
  21145052.735    21145057.286     4096134.061     3185889.776                  
       482.000         355.000  
 22 01 20 01 17 00.0000000  0  9G01G03G04G07G09G14G30R07R09         
  25988894.928    25988899.125    10907999.058     8648842.380                  
       162.000         182.000  
  23815112.661    23815115.331    16268171.302    12826337.886                  
       379.000         383.000  
  19960039.131    19960039.955      973223.164      911411.652                  
       342.000         357.000  
  24269286.160    24269285.536    16225180.206    12793055.174                  
       410.000         303.000  
  22084646.955    22084648.957     3332450.846     2749156.368                  
       431.000         373.000  
  27627676.275    27627686.283    36311015.979    28446491.499                  
       363.000         378.000  
  27350225.248    27350230.685    35664122.714    27940902.819                  
       355.000         325.000  
  21089375.271    21089378.746     4903231.350     3813626.046                  
       650.000         386.000  
  21236141.291    21236145.621     4582541.441     3564206.643                  
       491.000         363.000  
 22 01 20 01 17 30.0000000  0  9G01G03G04G07G09G14G30R07R09         
  26052196.080    26052200.214    11240647.206     8908048.667                  
       155.000         181.000  
  23985639.238    23985641.934    17164294.427    13524615.587                  
       377.000         384.000  
  20020859.308    20020859.703     1292835.087     1160459.900                  
       356.000         366.000  
  24404784.796    24404784.407    16937229.455    13347898.650                  
       406.000         299.000  
  22177823.419    22177825.147     3822097.569     3130699.260                  
       434.000         383.000  
  27800528.648    27800537.497    37219380.322    29154312.709                  
       354.000         372.000  
  27511138.074    27511144.139    36509707.906    28599796.837                  
       350.000         320.000  
  21206972.914    21206976.766     5532747.060     4303249.382                  
       691.000         411.000  
  21330834.772    21330838.824     5088198.186     3957495.238                  
       496.000         374.000  
 22 01 20 01 18 00.0000000  0 10G01G03G04G07G08G09G14G30R07R09      
  26114730.587    26114734.451    11569270.613     9164118.879                  
       155.000         179.000  
  24157612.799    24157615.334    18068019.822    14228817.132                  
       376.000         380.000  
  20090198.786    20090199.395     1657216.839     1444393.712                  
       365.000         373.000  
  24541273.113    24541272.856    17654481.150    13906796.028                  
       407.000         295.000  
  20638653.943    20638657.287       70959.662      208051.422                  
       243.000         240.000  
  22276815.368    22276817.137     4342304.212     3536055.082                  
       435.000         400.000  
  27972294.681    27972301.575    38122048.553    29857698.613                  
       347.000         361.000  
  27670627.930    27670634.274    37347826.112    29252874.004                  
       343.000         312.000  
  21330726.507    21330730.745     6195208.131     4818496.886                  
       723.000         438.000  
  21429003.040    21429007.345     5612411.856     4365216.982                  
       497.000         378.000  
 22 01 20 01 18 30.0000000  0 10G01G03G04G07G08G09G14G30R07R09      
  26176464.705    26176468.101    11893680.660     9416905.932                  
       153.000         176.000  
  24330798.456    24330801.275    18978118.128    14937984.558                  
       370.000         379.000  
  20167906.738    20167907.917     2065576.144     1762595.765                  
       382.000         380.000  
  24678639.457    24678639.274    18376345.948    14469288.007                  
       401.000         292.000  
  20655988.644    20655992.406      162056.418      279035.898                  
       255.000         252.000  
  22381483.081    22381485.044     4892336.174     3964651.404                  
       443.000         420.000  
  28142859.825    28142866.325    39018378.885    30556138.934                  
       339.000         358.000  
  27828595.818    27828601.926    38177964.606    29899738.326                  
       337.000         304.000  
  21460427.453    21460431.149     6889505.869     5358506.233                  
       750.000         455.000  
  21530515.551    21530519.468     6154481.593     4786826.793                  
       496.000         383.000  
 22 01 20 01 19 00.0000000  0 10G01G03G04G07G08G09G14G30R07R09      
  26237362.149    26237366.517    12213703.751     9666274.530                  
       148.000         173.000  
  24504968.450    24504971.316    19893385.996    15651180.219                  
       365.000         378.000  
  20253815.913    20253816.767     2517030.461     2114378.349                  
       391.000         385.000  
  24816773.445    24816773.032    19102243.467    15034922.425                  
       397.000         290.000  
  20680629.165    20680633.213      291543.569      379934.949                  
       262.000         263.000  
  22491677.845    22491680.146     5471414.357     4415881.161                  
       449.000         448.000  
  28312105.405    28312111.876    39907777.453    31249178.480                  
       318.000         322.000  
  27984947.437    27984952.840    38999608.785    30539983.313                  
       333.000         298.000  
  21595860.843    21595864.209     7614486.931     5922380.344                  
       764.000         471.000  
  21635238.631    21635243.354     6713699.651     5221774.158                  
       495.000         387.000  
 22 01 20 01 19 30.0000000  0 11G01G03G04G07G08G09G14G30R05R07R09   
  26297396.198    26297399.608    12529181.071     9912100.936                  
       146.000         173.000  
  24679898.510    24679900.708    20812646.933    16367487.362                  
       358.000         377.000  
  20347741.331    20347742.191     3010612.890     2498988.000                  
       412.000         392.000  
  24955565.710    24955564.979    19831602.148    15603253.870                  
       396.000         286.000  
  20712553.425    20712556.738      459304.739      510657.937                  
       277.000         280.000  
  22607243.985    22607246.211     6078718.266     4889104.967                  
       464.000         471.000  
  28480007.290    28480013.384    40790118.389    31936719.044                  
       191.000         204.000  
  28139590.244    28139595.171    39812269.131    31173226.599                  
       329.000         292.000  
  23576305.922    23576311.342      393541.573      306087.822                  
       225.000         152.000  
  21736800.558    21736805.831     8368958.367     6509191.438                  
       767.000         480.000  
  21743040.030    21743044.230     7289353.137     5669504.661                  
       492.000         392.000  
 22 01 20 01 20 00.0000000  0 10G01G03G04G07G08G09G30R05R07R09      
  26356537.911    26356540.807    12839968.473    10154272.889                  
       141.000         169.000  
  24855368.504    24855371.837    21734752.161    17086010.827                  
       350.000         376.000  
  20449485.112    20449485.516     3545278.288     2915610.332                  
       434.000         402.000  
  25094909.418    25094909.207    20563859.070    16173843.637                  
       392.000         282.000  
  20751724.405    20751727.558      665148.651      671055.766                  
       287.000         290.000  
  22728017.982    22728019.924     6713389.460     5383653.938                  
       475.000         492.000  
  28292435.028    28292439.546    40615474.520    31799101.502                  
       328.000         287.000  
  23641428.055    23641432.997      741653.661      576841.635                  
       226.000         154.000  
  21883022.320    21883027.417     9151692.768     7117984.845                  
       762.000         482.000  
  21853785.119    21853789.496     7880725.392     6129460.873                  
       486.000         393.000  
 22 01 20 01 20 30.0000000  0 10G01G03G04G07G08G09G30R05R07R09      
  26414761.272    26414763.861    13145935.700    10392688.836                  
       142.000         163.000  
  25031167.688    25031170.855    22658581.009    17805877.355                  
       339.000         376.000  
  20558833.565    20558834.445     4119909.468     3363374.861                  
       459.000         411.000  
  25234699.777    25234699.426    21298460.766    16746260.389                  
       387.000         277.000  
  20798091.141    20798094.569      908808.189      860920.342                  
       306.000         306.000  
  22853829.705    22853831.460     7374534.392     5898831.811                  
       489.000         508.000  
  28443399.803    28443404.864    41408806.551    32417283.123                  
       276.000         240.000  
  23708139.399    23708144.136     1098265.275      854206.195                  
       229.000         156.000  
  22034288.519    22034292.916     9961432.126     7747782.124                  
       744.000         481.000  
  21967339.107    21967344.002     8487097.588     6601083.729                  
       485.000         397.000  
 22 01 20 01 21 00.0000000  0  9G01G03G04G07G08G09R05R07R09         
  26472044.910    26472048.777    13446965.866    10627257.737                  
       138.000         164.000  
  25207086.608    25207089.774    23583040.545    18526235.327                  
       332.000         372.000  
  20675562.353    20675562.856     4733322.336     3841358.854                  
       489.000         423.000  
  25374832.567    25374832.054    22034862.591    17320079.941                  
       382.000         276.000  
  20851589.225    20851592.286     1189942.074     1079985.663                  
       325.000         324.000  
  22984502.908    22984504.966     8061226.654     6433916.693                  
       498.000         522.000  
  23776304.310    23776309.522     1462645.129     1137612.719                  
       230.000         157.000  
  22190359.406    22190364.007    10796892.047     8397584.232                  
       723.000         476.000  
  22083567.174    22083572.109     9107748.771     7083812.423                  
       485.000         396.000  
 22 01 20 01 21 30.0000000  0  9G01G03G04G07G08G09R05R07R09         
  26528371.368    26528374.295    13742958.592    10857901.257                  
       138.000         160.000  
  25382923.356    25382926.934    24507069.905    19246258.096                  
       325.000         370.000  
  20799435.002    20799435.262     5384276.967     4348596.188                  
       518.000         439.000  
  25515206.493    25515205.899    22772531.999    17894887.180                  
       375.000         272.000  
  20912140.741    20912143.862     1508141.452     1327933.197                  
       347.000         339.000  
  23119856.559    23119858.190     8772514.468     6988166.965                  
       503.000         531.000  
  23845787.221    23845791.435     1834069.494     1426498.311                  
       234.000         159.000  
  22350992.156    22350996.335    11656770.445     9066378.537                  
       708.000         466.000  
  22202335.197    22202339.917     9741962.005     7577089.373                  
       485.000         400.000  
 22 01 20 01 22 00.0000000  0  9G01G03G04G07G08G09R05R07R09         
  26583720.896    26583725.083    14033825.273    11084550.300                  
       134.000         155.000  
  25558482.137    25558485.216    25429635.508    19965140.260                  
       318.000         366.000  
  20930204.997    20930205.585     6071478.700     4884078.002                  
       548.000         453.000  
  25655721.325    25655721.288    23510943.950    18470272.998                  
       370.000         268.000  
  20979653.807    20979656.922     1862925.901     1604388.557                  
       368.000         352.000  
  23259704.002    23259706.098     9507418.276     7560819.260                  
       508.000         535.000  
  23916452.430    23916457.662     2211818.667     1720303.217                  
       235.000         157.000  
  22515939.485    22515943.308    12539745.715     9753137.073                  
       693.000         458.000  
  22323508.112    22323512.424    10389019.401     8080356.201                  
       491.000         403.000  
 22 01 20 01 22 30.0000000  0 10G01G03G04G07G08G09G27R05R07R09      
  26638082.960    26638085.607    14319491.508    11307147.036                  
       129.000         152.000  
  25733571.361    25733574.214    26349733.665    20682099.712                  
       315.000         362.000  
  21067617.772    21067618.261     6793587.318     5446759.994                  
       578.000         474.000  
  25796279.538    25796279.909    24249583.746    19045836.393                  
       358.000         268.000  
  21054025.273    21054028.478     2253748.777     1908925.838                  
       390.000         371.000  
  23403855.287    23403857.057    10264936.804     8151093.396                  
       505.000         536.000  
  19871040.666    19871042.286       62925.101      202320.478                  
       267.000         217.000  
  23988168.696    23988173.923     2595180.470     2018473.488                  
       238.000         159.000  
  22684952.370    22684956.579    13444483.994    10456822.392                  
       684.000         449.000  
  22446952.370    22446957.274    11048206.526     8593057.253                  
       497.000         404.000  
 22 01 20 01 23 00.0000000  0 10G01G03G04G07G08G09G27R05R07R09      
  26691440.220    26691444.480    14599895.763    11525643.561                  
       129.000         149.000  
  25908005.057    25908008.629    27266390.196    21396377.377                  
       310.000         363.000  
  21211410.380    21211410.987     7549222.842     6035566.897                  
       602.000         499.000  
  25936785.727    25936785.364    24987945.808    19621183.357                  
       356.000         264.000  
  21135137.800    21135141.177     2679999.872     2241069.512                  
       413.000         385.000  
  23552115.394    23552117.257    11044049.198     8758193.939                  
       506.000         534.000  
  19885396.301    19885398.896      138367.763      261106.968                  
       283.000         228.000  
  24060802.828    24060808.259     2983451.368     2320461.923                  
       242.000         157.000  
  22857778.609    22857783.344    14369641.910    11176389.681                  
       681.000         435.000  
  22572535.665    22572540.219    11718812.852     9114639.979                  
       500.000         409.000  
 22 01 20 01 23 30.0000000  0 10G01G03G04G07G08G09G27R05R07R09      
  26743789.896    26743793.201    14874989.384    11740001.905                  
       127.000         146.000  
  26081604.885    26081608.024    28178660.606    22107237.267                  
       306.000         359.000  
  21361314.047    21361314.880     8336971.865     6649397.292                  
       626.000         525.000  
  26077144.354    26077144.065    25725534.198    20195927.302                  
       349.000         259.000  
  21222865.041    21222868.336     3141008.471     2600296.984                  
       438.000         405.000  
  23704287.227    23704289.137    11843718.161     9381312.578                  
       503.000         530.000  
  19908336.988    19908339.411      258921.237      355044.739                  
       303.000         240.000  
  24134225.678    24134230.154     3375937.551     2625728.931                  
       243.000         158.000  
  23034169.125    23034173.176    15313870.338    11910789.545                  
       685.000         426.000  
  22700124.773    22700129.393    12400132.649     9644555.436                  
       508.000         414.000  
 22 01 20 01 24 00.0000000  0 10G01G03G04G07G08G09G27R05R07R09      
  26795120.620    26795125.207    15144736.157    11950193.794                  
       126.000         142.000  
  26254195.020    26254198.748    29085629.757    22813966.250                  
       302.000         356.000  
  21517054.513    21517055.301     9155393.597     7287128.530                  
       642.000         552.000  
  26217262.834    26217263.141    26461862.789    20769689.457                  
       343.000         256.000  
  21317067.925    21317070.935     3636047.255     2986041.524                  
       453.000         422.000  
  23860170.895    23860172.733    12662892.512    10019630.214                  
       504.000         526.000  
  19939812.206    19939814.178      424323.992      483930.010                  
       319.000         255.000  
  24208308.119    24208313.580     3771955.841     2933743.149                  
       244.000         158.000  
  23213869.495    23213873.252    16275818.029    12658971.042                  
       692.000         422.000  
  22829589.154    22829593.609    13091465.340    10182258.611                  
       512.000         414.000  
 22 01 20 01 24 30.0000000  0 10G01G03G04G07G08G09G27R05R07R09      
  26845432.260    26845434.949    15409112.556    12156200.816                  
       123.000         140.000  
  26425608.635    26425612.261    29986412.173    23515874.304                  
       297.000         349.000  
  21678353.586    21678354.430    10003025.686     7947621.079                  
       651.000         579.000  
  26357052.307    26357052.649    27196455.577    21342098.792                  
       343.000         252.000  
  21417597.338    21417600.419     4164334.258     3397693.729                  
       469.000         437.000  
  24019564.331    24019566.461    13500510.361    10672319.420                  
       502.000         521.000  
  19979752.847    19979755.410      634215.234      647481.634                  
       336.000         270.000  
  24282927.422    24282931.937     4170835.034     3243982.504                  
       246.000         159.000  
  23396626.368    23396631.496    17254133.799    13419883.260                  
       700.000         415.000  
  22960798.975    22960803.476    13792117.957    10727210.619                  
       515.000         419.000  
 22 01 20 01 25 00.0000000  0 11G01G03G04G07G08G09G16G27R05R07R09   
  26894716.026    26894721.077    15668106.486    12358013.370                  
       128.000         139.000  
  26595681.996    26595685.408    30880151.363    24212294.035                  
       291.000         342.000  
  21844929.602    21844930.622    10878389.162     8629722.454                  
       665.000         602.000  
  26496422.260    26496422.197    27928845.613    21912791.296                  
       343.000         247.000  
  21524295.887    21524299.231     4725038.599     3834606.186                  
       485.000         449.000  
  24182263.736    24182265.434    14355500.803    11338545.732                  
       502.000         519.000  
  21366329.218                      154907.387      120707.226    21366327.921  
       283.000          42.000  
  20028072.841    20028074.641      888136.695      845342.533                  
       355.000         285.000  
  24357957.536    24357962.218     4571916.394     3555934.615                  
       248.000         158.000  
  23582190.257    23582194.746    18247470.418    14192478.323                  
       704.000         409.000  
  23093625.437    23093629.721    14501404.294    11278877.782                  
       516.000         419.000  
 22 01 20 01 25 30.0000000  0 11G01G03G04G07G08G09G16G27R05R07R09   
  26942977.484    26942982.270    15921718.571    12555632.125                  
       125.000         138.000  
  26764257.542    26764261.656    31766019.722    24902580.398                  
       283.000         334.000  
  22016499.377    22016500.188    11779994.174     9332271.786                  
       674.000         622.000  
  26635286.286    26635287.419    28658575.683    22481410.670                  
       338.000         244.000  
  21636996.487    21636999.515     5317282.316     4296094.803                  
       498.000         462.000  
  24348063.922    24348065.652    15226786.873    12017469.929                  
       505.000         516.000  
  21400673.030                      335383.811      261338.290    21400671.880  
       288.000          45.000  
  20084665.945    20084668.133     1185536.138     1077082.375                  
       377.000         300.000  
  24433279.821    24433285.127     4974555.008     3869097.924                  
       251.000         158.000  
  23770309.735    23770313.202    19254486.431    14975712.926                  
       705.000         405.000  
  23227941.943    23227946.378    15218646.067    11836732.533                  
       511.000         419.000  
 22 01 20 01 26 00.0000000  0 11G01G03G04G07G08G09G16G27R05R07R09   
  26990217.204    26990221.487    16169960.539    12749066.378                  
       124.000         134.000  
  26931183.409    26931187.579    32643218.297    25586110.752                  
       273.000         325.000  
  22192777.948    22192779.023    12706344.119    10054102.867                  
       682.000         636.000  
  26773559.099    26773560.636    29385197.653    23047607.797                  
       328.000         238.000  
  21755523.300    21755526.096     5940145.604     4781442.825                  
       509.000         470.000  
  24516759.574    24516761.380    16113287.427    12708249.556                  
       499.000         507.000  
  21440634.893                      545382.957      424974.021    21440633.519  
       294.000          45.000  
  20149410.576    20149412.428     1525770.749     1342200.306                  
       403.000         314.000  
  24508775.210    24508781.325     5378120.373     4182982.049                  
       251.000         158.000  
  23960734.836    23960739.589    20273848.011    15768549.634                  
       704.000         400.000  
  23363622.493    23363627.413    15943173.023    12400253.472                  
       505.000         422.000  
 22 01 20 01 26 30.0000000  0 11G01G03G04G07G08G09G16G27R05R07R09   
  27036439.506    27036444.943    16412854.342    12938332.838                  
       123.000         132.000  
  27096313.632    27096317.937    33510976.548    26262284.503                  
       270.000         314.000  
  22373480.248    22373481.022    13655940.519    10794048.068                  
       697.000         643.000  
  26911157.723    26911158.968    30108273.367    23611041.255                  
       328.000         237.000  
  21879694.388    21879697.724     6592670.619     5289903.882                  
       519.000         478.000  
  24688143.877    24688145.635    17013919.602    13410040.843                  
       492.000         502.000  
  21486140.610                      784519.856      611314.514    21486139.075  
       297.000          50.000  
  20222167.506    20222169.638     1908111.232     1640127.994                  
       437.000         331.000  
  24584328.628    24584333.162     5781997.216     4497108.432                  
       254.000         158.000  
  24153219.395    24153223.468    21304232.303    16569959.541                  
       698.000         397.000  
  23500544.050    23500548.129    16674324.625    12968926.896                  
       497.000         420.000  
 22 01 20 01 27 00.0000000  0 11G01G03G04G07G08G09G16G27R05R07R09   
  27081650.764    27081655.622    16650434.863    13123459.499                  
       120.000         131.000  
  27259506.596    27259511.560    34368551.667    26930522.489                  
       258.000         306.000  
  22558321.363    22558321.928    14627286.726    11550941.190                  
       711.000         648.000  
  27047999.327    27048001.443    30827375.518    24171379.016                  
       319.000         231.000  
  22009321.075    22009324.215     7273863.349     5820703.418                  
       530.000         485.000  
  24862011.655    24862013.420    17927600.395    14121999.864                  
       484.000         497.000  
  21537110.281                     1052367.895      820027.328    21537108.212  
       295.000          51.000  
  20302782.907    20302784.530     2331746.390     1970233.341                  
       464.000         348.000  
  24659827.977    24659833.053     6185586.038     4811010.822                  
       255.000         158.000  
  24347517.859    24347522.259    22344327.765    17378922.597                  
       690.000         393.000  
  23638583.695    23638587.851    17411449.714    13542246.480                  
       487.000         415.000  
 22 01 20 01 27 30.0000000  0 11G01G03G04G07G08G09G16G27R05R07R09   
  27125857.720    27125864.129    16882745.033    13304479.324                  
       123.000         127.000  
  27420627.155    27420632.349    35215228.416    27590266.816                  
       251.000         296.000  
  22747017.518    22747018.372    15618892.012    12323620.621                  
       723.000         653.000  
  27184003.934    27184005.369    31542088.378    24728299.155                  
       310.000         228.000  
  22144208.195    22144211.334     7982699.870     6373043.584                  
       541.000         497.000  
  25038156.392    25038158.775    18853249.035    14843284.525                  
       472.000         493.000  
  21593454.763                     1348461.583     1050749.724    21593453.751  
       302.000          48.000  
  20391086.806    20391088.675     2795788.407     2331824.579                  
       488.000         365.000  
  24735165.058    24735171.030     6588303.654     5124235.616                  
       259.000         160.000  
  24543388.219    24543393.258    23392837.966    18194430.455                  
       685.000         390.000  
  23777621.807    23777626.327    18153906.799    14119713.153                  
       481.000         411.000  
 22 01 20 01 28 00.0000000  0 11G01G03G04G07G08G09G16G27R05R07R09   
  27169073.568    27169079.572    17109838.312    13481433.893                  
       122.000         125.000  
  27579543.405    27579550.302    36050320.844    28240983.473                  
       242.000         288.000  
  22939286.974    22939287.517    16629274.434    13110931.589                  
       722.000         659.000  
  27319092.521    27319093.459    32252002.323    25281483.187                  
       307.000         224.000  
  22284155.707    22284158.991     8718128.347     6946104.741                  
       556.000         506.000  
  25216373.798    25216375.983    19789787.891    15573055.065                  
       466.000         485.000  
  21655078.516                     1672297.994     1303089.757    21655078.189  
       305.000          64.000  
  20486897.342    20486899.309     3299277.358     2724153.683                  
       510.000         387.000  
  24810232.625    24810238.432     6989583.884     5436342.463                  
       263.000         161.000  
  24740591.293    24740596.291    24448480.631    19015485.713                  
       680.000         389.000  
  23917540.577    23917545.288    18901064.231    14700835.619                  
       480.000         404.000  
 22 01 20 01 28 30.0000000  0 12G01G03G04G07G08G09G16G21G27R05R07R09
  27211309.068    27211314.879    17331778.362    13654372.989                  
       122.000         124.000  
  27736128.541    27736136.555    36873176.689    28882167.927                  
       237.000         279.000  
  23134850.093    23134850.683    17656964.299    13911728.843                  
       718.000         661.000  
  27453191.372    27453191.820    32956704.593    25830604.077                  
       302.000         221.000  
  22428958.640    22428961.668     9479074.088     7539049.472                  
       566.000         518.000  
  25396459.670    25396462.000    20736144.507    16310475.721                  
       458.000         478.000  
  21721879.964                     2023338.875     1576628.047    21721878.493  
       318.000          71.000  
  25561368.012                      140849.056      109748.449    25561366.662  
       133.000          18.000  
  20590019.611    20590021.156     3841187.320     3146421.186                  
       535.000         404.000  
  24884928.953    24884933.371     7388878.239     5746904.707                  
       267.000         162.000  
  24938891.643    24938895.162    25509991.082    19841104.737                  
       674.000         392.000  
  24058223.284    24058227.423    19652301.526    15285131.204                  
       481.000         398.000  
 22 01 20 01 29 00.0000000  0 12G01G03G04G07G08G09G16G21G27R05R07R09
  27252576.281    27252582.776    17548637.684    13823353.046                  
       123.000         125.000  
  27890261.938    27890268.530    37683169.472    29513335.262                  
       233.000         275.000  
  23333429.511    23333430.352    18700506.803    14724878.778                  
       702.000         665.000  
  27586224.973    27586225.084    33655802.945    26375356.416                  
       298.000         220.000  
  22578409.311    22578412.570    10264442.093     8151024.517                  
       571.000         531.000  
  25578211.072    25578212.995    21691253.268    17054716.190                  
       454.000         473.000  
  21793749.200                     2401012.945     1870919.495    21793747.882  
       327.000          67.000  
  25581088.032                      244478.280      190498.462    25581085.701  
       133.000          22.000  
  20700246.302    20700247.925     4420432.056     3597780.704                  
       554.000         419.000  
  24959154.574    24959160.209     7785655.789     6055509.392                  
       270.000         162.000  
  25138053.945    25138057.564    26576122.206    20670317.507                  
       663.000         392.000  
  24199555.619    24199560.193    20407009.197    15872125.920                  
       486.000         393.000  
 22 01 20 01 29 30.0000000  0 12G01G03G04G07G08G09G16G21G27R05R07R09
  27292893.027    27292899.235    17760499.439    13988439.676                  
       124.000         121.000  
  28041831.241    28041837.658    38479674.718    30133989.807                  
       229.000         268.000  
  23534752.092    23534753.044    19758464.434    15549261.269                  
       685.000         662.000  
  27718120.055    27718120.658    34348915.075    26915443.599                  
       296.000         214.000  
  22732295.799    22732299.022    11073120.566     8781163.542                  
       574.000         539.000  
  25761426.296    25761428.750    22654056.329    17804952.160                  
       449.000         468.000  
  21870571.431                     2804717.064     2185494.055    21870570.313  
       339.000          78.000  
  25602725.181                      358187.202      279094.777    25602724.837  
       136.000          18.000  
  20817360.486    20817362.149     5035870.463     4077343.059                  
       582.000         437.000  
  25032813.762    25032818.691     8179404.481     6361758.274                  
       272.000         165.000  
  25337849.925    25337854.171    27645645.723    21502168.682                  
       650.000         389.000  
  24341426.189    24341430.748    21164587.902    16461353.557                  
       493.000         385.000  
 22 01 20 01 30 00.0000000  0 12G01G03G04G07G08G09G16G21G27R05R07R09
  27332274.507    27332281.916    17967452.196    14149701.337                  
       126.000         121.000  
  28190724.770    28190731.195    39262114.841    30743683.095                  
       225.000         257.000  
  23738548.034    23738548.848    20829418.704    16383770.996                  
       669.000         657.000  
  27848804.634    27848805.444    35035667.417    27450574.981                  
       291.000         215.000  
  22890404.096    22890407.019    11903983.693     9428589.304                  
       572.000         548.000  
  25945906.719    25945908.831    23623504.614    18560366.128                  
       442.000         463.000  
  21952226.672                     3233819.447     2519859.446    21952225.689  
       348.000          76.000  
  25626308.819                      482123.088      375670.095    25626309.192  
       137.000          16.000  
  20941135.244    20941136.906     5686312.152     4584180.658                  
       608.000         456.000  
  25105813.542    25105819.114     8569630.396     6665267.155                  
       275.000         163.000  
  25538054.706    25538058.566    28717352.871    22335718.046                  
       631.000         392.000  
  24483724.267    24483728.699    21924450.238    17052357.268                  
       503.000         378.000  
 22 01 20 01 30 30.0000000  0 12G01G03G04G07G08G09G16G21G27R05R07R09
  27370741.133    27370747.388    18169594.153    14307214.714                  
       128.000         120.000  
  28336842.338    28336847.868    40029974.556    31342017.378                  
       191.000         211.000  
  23944551.307    23944552.003    21911972.457    17227319.256                  
       664.000         650.000  
  27978266.870    27978268.104    35715993.521    27980698.493                  
       164.000         122.000  
  23052517.390    23052520.632    12755895.936    10092416.954                  
       571.000         553.000  
  26131453.648    26131455.867    24598559.407    19320148.716                  
       436.000         459.000  
  22038590.141                     3687661.716     2873502.662    22038588.986  
       362.000          83.000  
  25651866.624                      616423.046      480305.342    25651864.360  
       138.000          18.000  
  21071336.504    21071338.152     6370523.709     5117332.414                  
       630.000         479.000  
  25178065.374    25178071.437     8955859.081     6965667.077                  
       276.000         162.000  
  25738444.517    25738449.166    29790056.067    23170041.810                  
       615.000         388.000  
  24626342.528    24626346.588    22686019.419    17644688.424                  
       502.000         370.000  
 22 01 20 01 31 00.0000000  0 11G01G03G04G08G09G16G21G27R05R07R09   
  27408310.746    27408317.343    18367029.511    14461060.325                  
       129.000         124.000  
  28480470.071    28480482.453    40784763.558   387055031.076                  
        36.000          30.000  
  24152500.345    24152500.972    23004751.178    18078834.996                  
       664.000         643.000  
  23218418.941    23218422.244    13627714.219    10771755.779                  
       567.000         558.000  
  26317872.211    26317874.303    25578192.999    20083499.084                  
       422.000         456.000  
  22129531.627                     4165560.772     3245891.414    22129530.369  
       370.000          85.000  
  25679418.460                      761212.730      593128.365    25679416.225  
       139.000          22.000  
  21207721.951    21207724.091     7087234.079     5675807.942                  
       654.000         503.000  
  25249484.936    25249491.050     9337635.441     7262604.099                  
       275.000         164.000  
  25938803.860    25938809.217    30862587.753    24004231.713                  
       595.000         385.000  
  24769173.587    24769178.277    23448730.495    18237907.603                  
       508.000         367.000  
 22 01 20 01 31 30.0000000  0 10G01G04G08G09G16G21G27R05R07R09      
  27445008.749    27445014.325    18559872.966    14611328.623                  
       129.000         123.000  
  24362138.140    24362138.939    24106404.452    18937265.943                  
       668.000         629.000  
  23387889.878    23387893.007    14518290.038    11465710.861                  
       563.000         557.000  
  26504968.482    26504971.311    26561389.532    20849625.582                  
       407.000         451.000  
  22224916.277                     4666810.998     3636475.905    22224914.891  
       374.000          86.000  
  25708989.868                      916606.510      714214.281    25708988.508  
       142.000          20.000  
  21350043.714    21350045.774     7835139.886     6258591.570                  
       672.000         526.000  
  25319989.181    25319994.884     9714523.036     7555738.641                  
       272.000         162.000  
  26138916.169    26138922.851    31933802.568    24837396.666                  
       586.000         380.000  
  24912115.355    24912120.573    24212029.617    18831584.058                  
       507.000         360.000  
 22 01 20 01 32 00.0000000  0 10G01G04G08G09G16G21G27R05R07R09      
  27480853.250    27480858.360    18748244.736    14758113.675                  
       129.000         123.000  
  24573212.591    24573213.390    25215607.016    19801579.423                  
       663.000         617.000  
  23560711.719    23560714.883    15426473.149    12173385.901                  
       565.000         556.000  
  26692552.930    26692555.386    27547145.941    21617746.556                  
       393.000         442.000  
  22324606.559                     5190686.944     4044690.868    22324605.632  
       380.000          90.000  
  25740597.309                     1082705.575      843641.969    25740594.957  
       142.000          21.000  
  21498048.914    21498050.492     8612911.159     6864647.003                  
       685.000         546.000  
  25389501.747    25389507.919    10086106.121     7844747.434                  
       273.000         162.000  
  26338576.103    26338582.255    33002576.609    25668661.983                  
       583.000         370.000  
  25055065.637    25055071.455    24975374.614    19425296.027                  
       500.000         357.000  
 22 01 20 01 32 30.0000000  0 10G01G04G08G09G16G21G27R05R07R09      
  27515870.473    27515875.380    18932266.012    14901507.623                  
       134.000         120.000  
  24785476.297    24785477.215    26331059.855    20670763.210                  
       650.000         600.000  
  23736664.835    23736668.148    16351113.547    12893884.768                  
       569.000         553.000  
  26880435.486    26880438.922    28534472.604    22387090.778                  
       384.000         431.000  
  22428461.152                     5736445.384     4469957.096    22428459.701  
       386.000          88.000  
  25774259.069                     1259599.853      981481.571    25774257.760  
       149.000          19.000  
  21651479.791    21651481.720     9419196.236     7492920.975                  
       698.000         566.000  
  25457947.832    25457953.838    10451988.159     8129322.051                  
       270.000         162.000  
  26537574.121    26537581.473    34067809.082    26497171.253                  
       578.000         362.000  
  25197926.253    25197931.171    25738234.594    20018630.597                  
       492.000         354.000  
 22 01 20 01 33 00.0000000  0 10G01G04G08G09G16G21G27R05R07R09      
  27550085.728    27550091.763    19112069.841    15041614.887                  
       131.000         122.000  
  24998687.421    24998688.140    27451490.722    21543825.924                  
       633.000         591.000  
  23915531.672    23915534.693    17291063.474    13626313.112                  
       569.000         554.000  
  27068431.672    27068435.701    29522393.655    23156897.635                  
       378.000         419.000  
  22536335.460                     6303327.189     4911683.055    22536334.366  
       395.000          93.000  
  25809990.041                     1447364.923     1127791.883    25809989.643  
       149.000          18.000  
  21810076.432    21810078.485    10252626.754     8142347.259                  
       705.000         585.000  
  25525257.215    25525263.514    10811793.107     8409170.120                  
       268.000         161.000  
  26735707.364    26735716.010    35128431.307    27322097.687                  
       570.000         356.000  
  25340597.515    25340603.755    26500090.398    20611183.985                  
       481.000         350.000  
 22 01 20 01 33 30.0000000  0 10G01G04G08G09G16G21G27R05R07R09      
  27583524.384    27583529.909    19287792.829    15178541.740                  
       133.000         120.000  
  25212608.993    25212609.950    28575654.863    22419797.631                  
       608.000         576.000  
  24097093.823    24097097.072    18245179.046    14369779.601                  
       562.000         558.000  
  27256359.099    27256363.117    30509947.749    23926417.774                  
       373.000         407.000  
  22648082.155                     6890559.794     5369266.755    22648081.076  
       397.000          96.000  
  25847800.727                     1646063.110     1282621.496    25847800.705  
       152.000          24.000  
  21973576.009    21973578.038    11111822.115     8811850.024                  
       712.000         603.000  
  25591362.663    25591369.124    11165164.820     8684014.557                  
       268.000         162.000  
  26932781.775    26932790.036    36183390.461    28142623.426                  
       560.000         352.000  
  25482986.897    25482993.008    27260433.522    21202560.525                  
       464.000         347.000  
 22 01 20 01 34 00.0000000  0 11G01G04G08G09G16G21G27R05R07R09R19   
  27616214.431    27616220.078    19459577.502    15312399.484                  
       133.000         121.000  
  25427009.255    25427010.921    29702335.595    23297730.270                  
       587.000         561.000  
  24281135.223    24281138.708    19212322.905    15123398.002                  
       554.000         560.000  
  27444037.273    27444042.656    31496188.376    24694913.214                  
       366.000         392.000  
  22763552.094                     7497359.097     5842097.248    22763550.470  
       401.000          92.000  
  25887701.794                     1855742.162     1446008.635    25887701.317  
       153.000          20.000  
  22141714.361    22141716.405    11995394.209     9500347.630                  
       721.000         609.000  
  25656202.373    25656208.246    11511766.987     8953593.709                  
       266.000         159.000  
  27128603.545    27128612.023    37231645.049    28957933.464                  
       543.000         346.000  
  25624999.584    25625006.819    28018767.495    21792373.997                  
       450.000         343.000  
  19977579.904    19977586.052      563908.579      438597.802                  
       180.000         282.000  
 22 01 20 01 34 30.0000000  0 10G01G04G08G09G16G21G27R05R09R19      
  27648183.154    27648188.310    19627570.261    15443302.210                  
       130.000         121.000  
  25641662.598    25641664.274    30830344.371    24176697.686                  
       564.000         543.000  
  24467441.403    24467444.879    20191366.625    15886288.996                  
       548.000         564.000  
  27631289.721    27631296.378    32480183.583    25461656.894                  
       361.000         377.000  
  22882594.494                     8122930.778     6329555.538    22882593.404  
       406.000          97.000  
  25929698.595                     2076436.538     1617978.165    25929698.159  
       158.000          23.000  
  22314226.401    22314228.531    12901951.150    10206755.485                  
       731.000         618.000  
  25719716.138    25719722.025    11851283.348     9217661.566                  
       266.000         158.000  
  25766545.723    25766552.978    28774606.749    22380246.552                  
       436.000         340.000  
  20076342.588    20076347.146     1092218.004      849505.050                  
       189.000         297.000  
 22 01 20 01 35 00.0000000  0 10G01G04G08G09G16G21G27R05R09R19      
  27679458.872    27679464.735    19791923.135    15571369.038                  
       132.000         120.000  
  25856347.861    25856349.592    31958521.245    25055795.990                  
       547.000         524.000  
  24655798.665    24655802.343    21181189.959    16657579.664                  
       537.000         565.000  
  27817943.193    27817951.988    33461016.410    26225932.877                  
       351.000         361.000  
  23005056.922                     8766474.030     6831017.636    23005056.323  
       409.000          98.000  
  25973796.049                     2308165.291     1798545.771    25973794.833  
       161.000          24.000  
  22490847.666    22490849.890    13830101.499    10929989.379                  
       741.000         623.000  
  25781849.658    25781855.109    12183418.384     9475988.208                  
       268.000         158.000  
  25907536.326    25907544.059    29527476.997    22965809.277                  
       425.000         336.000  
  20182512.040    20182517.829     1660154.435     1291233.282                  
       203.000         306.000  
 22 01 20 01 35 30.0000000  0 10G01G04G08G09G16G21G27R05R09R19      
  27710069.572    27710076.439    19952788.195    15696717.608                  
       127.000         118.000  
  26070850.133    26070852.001    33085734.295    25934143.103                  
       527.000         510.000  
  24845996.199    24845999.666    22180683.214    17436405.272                  
       536.000         560.000  
  28003823.624    28003834.092    34437802.077    26987058.631                  
       339.000         349.000  
  23130785.596                     9427181.376     7345854.341    23130784.259  
       415.000          99.000  
  26019993.107                     2550932.379     1987714.626    26019992.091  
       162.000          26.000  
  22671313.884    22671316.083    14778456.744    11668967.316                  
       755.000         628.000  
  25842550.030    25842557.137    12507896.281     9728359.076                  
       266.000         158.000  
  26047885.351    26047894.000    30276914.469    23548701.014                  
       411.000         333.000  
  20295891.017    20295895.331     2266648.357     1762950.648                  
       212.000         318.000  
 22 01 20 01 36 00.0000000  0 11G01G04G08G09G16G21G26G27R05R09R19   
  27740048.801    27740054.600    20110324.120    15819472.296                  
       131.000         119.000  
  26284959.218    26284961.087    34210880.531    26810879.538                  
       512.000         497.000  
  25037825.173    25037828.690    23188750.156    18221911.645                  
       529.000         551.000  
  28188760.355    28188769.174    35409675.785    27744368.824                  
       329.000         342.000  
  23259626.126                    10104241.179     7873433.227    23259624.953  
       419.000         108.000  
  26068289.127                     2804726.435     2185475.955    26068288.130  
       164.000          25.000  
  20576083.648    20576086.562      129500.526      253094.293                  
       279.000         243.000  
  22855362.091    22855364.024    15745635.535    12422612.951                  
       764.000         633.000  
  25901771.357    25901777.975    12824462.211     9974576.094                  
       263.000         156.000  
  26187507.192    26187516.906    31022466.180    24128569.172                  
       400.000         325.000  
  20416263.097    20416269.592     2910565.464     2263774.958                  
       219.000         325.000  
 22 01 20 01 36 30.0000000  0 11G01G04G08G09G16G21G26G27R05R09R19   
  27769425.209    27769430.748    20264688.982    15939755.498                  
       125.000         116.000  
  26498470.198    26498472.472    35332885.248    27685167.852                  
       493.000         483.000  
  25231079.243    25231083.073    24204306.271    19013253.742                  
       522.000         540.000  
  28372593.950    28372601.555    36375745.527    28497154.960                  
       321.000         325.000  
  23391423.189                    10796839.552     8413120.103    23391422.206  
       423.000         103.000  
  26118677.038                     3069520.156     2391808.515    26118676.743  
       169.000          28.000  
  20601126.991    20601129.970      261104.095      355642.526                  
       284.000         246.000  
  23042731.072    23042733.208    16730265.953    13189857.296                  
       758.000         639.000  
  25959468.845    25959474.461    13132880.537    10214455.936                  
       260.000         153.000  
  26326319.831    26326331.179    31763689.926    24705069.262                  
       389.000         319.000  
  20543409.797    20543414.926     3590711.218     2792777.145                  
       227.000         332.000  
 22 01 20 01 37 00.0000000  0 12G01G04G08G09G16G21G26G27R05R09R18R19
  27798227.753    27798234.951    20416046.226    16057695.428                  
       130.000         117.000  
  26711184.774    26711187.225    36450701.859    28556192.403                  
       479.000         477.000  
  25425554.993    25425558.810    25226281.774    19809597.924                  
       513.000         525.000  
  28555164.174    28555170.607    37335176.534    29244768.492                  
       295.000         294.000  
  23526022.158                    11504161.521     8964279.931    23526020.742  
       422.000         102.000  
  26171151.343                     3345271.587     2606679.531    26171151.010  
       171.000          23.000  
  20632364.838    20632367.679      425260.008      483556.160                  
       292.000         254.000  
  23233162.370    23233164.437    17730988.055    13969640.596                  
       757.000         641.000  
  26015600.668    26015607.835    13432935.671    10447830.876                  
       260.000         151.000  
  26464242.537    26464256.098    32500157.420    25277869.334                  
       378.000         314.000  
  19906690.517    19906696.837      482493.059      375276.708                  
       645.000         407.000  
  20677095.225    20677099.669     4305836.939     3348985.974                  
       233.000         337.000  
 22 01 20 01 37 30.0000000  0 10G01G04G08G16G21G26G27R09R18R19      
  27826489.894    27826496.542    20564558.311    16173418.138                  
       126.000         118.000  
  26922908.570    26922911.515    37563311.875    29423159.388                  
       463.000         471.000  
  25621051.692    25621055.676    26253621.780    20610122.188                  
       500.000         518.000  
  23663267.706                    12225392.469     9526277.893    23663267.146  
       424.000         105.000  
  26225698.419                     3631921.326     2830042.777    26225698.538  
       174.000          31.000  
  20669755.455    20669758.734      621750.526      636665.627                  
       307.000         260.000  
  23426399.616    23426402.041    18746456.478    14760914.497                  
       745.000         647.000  
  26601195.703    26601210.922    33231450.649    25846645.540                  
       371.000         305.000  
  20035918.369    20035924.112     1172317.896      911807.031                  
       672.000         422.000  
  20817076.805    20817082.676     5054647.172     3931393.843                  
       240.000         344.000  
 22 01 20 01 38 00.0000000  0 10G01G04G08G16G21G26G27R09R18R19      
  27854240.685    27854247.902    20710389.944    16287052.071                  
       128.000         118.000  
  27133454.164    27133457.469    38669724.307    30285296.338                  
       446.000         459.000  
  25817371.181    25817375.301    27285286.692    21414016.436                  
       489.000         506.000  
  23803005.673                    12959719.499    10098480.606    23803005.053  
       424.000         105.000  
  26282306.036                     3929394.492     3061839.733    26282306.869  
       178.000          30.000  
  20713248.076    20713251.426      850304.525      814759.504                  
       322.000         271.000  
  23622190.251    23622192.785    19775342.291    15562643.469                  
       730.000         646.000  
  26737099.808    26737114.966    33957174.301    26411097.519                  
       366.000         298.000  
  20171351.195    20171357.510     1895267.596     1474101.107                  
       693.000         438.000  
  20963106.273    20963111.467     5835804.383     4538960.424                  
       245.000         351.000  
 22 01 20 01 38 30.0000000  0 11G01G04G08G16G21G26G27G31R09R18R19   
  27881513.258    27881521.400    20853708.638    16398728.796                  
       124.000         118.000  
  27342637.709    27342641.983    39768975.504    31141851.835                  
       435.000         449.000  
  26014319.500    26014324.005    28320254.253    22220484.071                  
       478.000         498.000  
  23945082.001                    13706333.113    10680257.215    23945080.991  
       421.000         100.000  
  26340955.950                     4237600.474     3301999.941    26340956.596  
       181.000          30.000  
  20762780.665    20762783.912     1110600.263     1017587.244                  
       336.000         280.000  
  23820284.902    23820287.036    20816334.968    16373806.315                  
       716.000         636.000  
  20184201.277    20184201.378      201702.841      307962.505                  
       253.000         200.000  
  26871882.282    26871897.396    34676921.315    26970904.848                  
       364.000         291.000  
  20312699.992    20312707.017     2649797.556     2060957.579                  
       712.000         452.000  
  21114925.851    21114931.324     6647936.177     5170618.312                  
       252.000         358.000  
 22 01 20 01 39 00.0000000  0 11G01G04G08G16G21G26G27G31R09R18R19   
  27908339.627    27908347.504    20994677.777    16508574.567                  
       124.000         118.000  
  27550281.578    27550287.668    40860127.864    31992094.239                  
       413.000         436.000  
  26211704.824    26211709.235    29357517.692    23028740.561                  
       471.000         487.000  
  24089342.891                    14464428.131    11270980.367    24089342.334  
       416.000         103.000  
  26401628.348                     4556431.724     3550439.516    26401627.521  
       186.000          24.000  
  20818283.027    20818285.816     1402265.187     1244858.446                  
       349.000         297.000  
  24020437.616    24020439.982    21868143.855    17193397.366                  
       704.000         629.000  
  20225828.285    20225827.870      420452.893      478417.040                  
       268.000         207.000  
  27005471.550    27005485.026    35390294.147    27525754.515                  
       372.000         304.000  
  20459671.725    20459678.080     3434340.828     2671157.789                  
       723.000         469.000  
  21272273.899    21272279.035     7489639.832     5825276.520                  
       259.000         367.000  
 22 01 20 01 39 30.0000000  0 11G01G04G08G16G21G26G27G31R09R18R19   
  27934750.015    27934756.595    21133462.003    16616717.387                  
       121.000         116.000  
  27756213.740    27756222.342    41942269.917    32835311.888                  
       405.000         420.000  
  26409338.995    26409343.274    30396087.752    23838015.017                  
       459.000         478.000  
  24235635.982                    15233204.060    11870026.267    24235635.744  
       411.000         104.000  
  26464298.468                     4885764.483     3807062.104    26464298.734  
       186.000          25.000  
  20879674.465    20879677.465     1724878.697     1496245.460                  
       363.000         309.000  
  24222407.107    24222409.694    22929499.360    18020427.349                  
       694.000         617.000  
  20274174.482    20274174.105      674515.243      676387.658                  
       278.000         217.000  
  27137795.480    27137806.598    36096917.428    28075356.410                  
       358.000         281.000  
  20611968.878    20611974.861     4247312.739     3303469.170                  
       737.000         484.000  
  21434883.254    21434888.516     8359488.632     6501825.376                  
       265.000         376.000  
 22 01 20 01 40 00.0000000  0 10G01G04G08G16G21G26G27G31R18R19      
  27960776.127    27960784.432    21270226.523    16723286.274                  
       120.000         113.000  
  27960264.687    27960275.136    43014529.457    33670830.059                  
       386.000         399.000  
  26607036.828    26607041.716    31434993.735    24647550.964                  
       451.000         468.000  
  24383810.876                    16011867.045    12476776.331    24383810.623  
       402.000         104.000  
  26528939.823                     5225458.725     4071758.451    26528940.651  
       187.000          27.000  
  20946866.511    20946869.426     2077973.823     1771384.379                  
       374.000         320.000  
  24425955.864    24425958.294    23999154.174    18853924.259                  
       687.000         607.000  
  20329131.911    20329131.279      963316.976      901427.901                  
       293.000         225.000  
  20769292.755    20769298.988     5087117.819     3956650.777                  
       745.000         499.000  
  21602483.367    21602488.512     9256035.668     7199139.497                  
       264.000         383.000  
 22 01 20 01 40 30.0000000  0 10G01G04G08G16G21G26G27G31R18R19      
  27986448.287    27986457.198    21405134.421    16828408.186                  
       120.000         113.000  
  28162265.855    28162274.807    44076078.801    34498017.996                  
       371.000         385.000  
  26804617.841    26804623.146    32473282.104    25456605.274                  
       438.000         462.000  
  24533717.693                    16799630.357    13090617.570    24533717.528  
       393.000         109.000  
  26595524.632                     5575359.123     4344407.585    26595526.236  
       190.000          26.000  
  21019760.915    21019764.365     2461038.803     2069876.500                  
       385.000         330.000  
  24630850.984    24630853.894    25075884.371    19692934.433                  
       677.000         596.000  
  20390579.666    20390579.562     1286227.433     1153046.359                  
       310.000         232.000  
  20931343.486    20931349.736     5952155.754     4629457.904                  
       757.000         507.000  
  21774800.883    21774806.878    10177820.956     7916083.372                  
       264.000         389.000  
 22 01 20 01 41 00.0000000  0 11G01G04G08G16G21G26G27G31R17R18R19   
  28011799.462    28011808.928    21538348.773    16932210.799                  
       116.000         114.000  
  28362064.625    28362071.843    45126059.604    35316192.643                  
       356.000         374.000  
  27001903.323    27001909.426    33510016.788    26264448.327                  
       422.000         450.000  
  24685207.852                    17595715.063    13710943.009    24685207.765  
       382.000         100.000  
  26664018.133                     5935292.632     4624874.633    26664018.933  
       192.000          31.000  
  21098253.855    21098256.625     2873519.325     2391289.798                  
       401.000         342.000  
  24836864.386    24836867.253    26158489.950    20536522.765                  
       664.000         590.000  
  20458387.902    20458387.898     1642561.955     1430709.520                  
       335.000         246.000  
  22874092.904    22874097.365      278575.581      216669.354                  
       310.000         168.000  
  21097821.443    21097828.247     6840825.904     5320645.653                  
       760.000         518.000  
  21951562.422    21951568.080    11123373.945     8651513.240                  
       259.000         389.000  
 22 01 20 01 41 30.0000000  0 11G01G04G08G16G21G26G27G31R17R18R19   
  28036857.658    28036866.752    21670029.572    17034818.408                  
       115.000         111.000  
  28559595.266    28559600.839    46164106.515    36125064.483                  
       203.000         212.000  
  27198719.682    27198726.258    34544280.390    27070364.886                  
       414.000         435.000  
  24838134.879                    18399350.515    14337152.088    24838134.219  
       380.000         109.000  
  26734385.484                     6305071.660     4913013.339    26734387.111  
       192.000          26.000  
  21182230.778    21182233.564     3314821.035     2735161.112                  
       411.000         354.000  
  25043772.229    25043774.850    27245795.587    21383773.388                  
       653.000         585.000  
  20532416.568    20532416.844     2031584.597     1733843.919                  
       364.000         256.000  
  22930210.946    22930215.631      578873.920      450234.446                  
       311.000         170.000  
  21268427.357    21268434.450     7751531.265     6028971.873                  
       769.000         522.000  
  22132491.229    22132496.757    12091218.948     9404281.331                  
       255.000         389.000  
 22 01 20 01 42 00.0000000  0 11G01G04G08G16G21G26G27G31R17R18R19   
  28061655.108    28061664.464    21800338.333    17136356.662                  
       110.000         104.000  
  28755981.881    28755987.624    47196132.701   400556484.472                  
        69.000          67.000  
  27394895.901    27394903.696    35575173.627    27873653.443                  
       398.000         421.000  
  24992353.662                    19209775.770    14968651.814    24992353.755  
       372.000          96.000  
  26806587.415                     6684491.880     5208664.367    26806588.562  
       193.000          25.000  
  21271572.074    21271575.094     3784311.911     3100997.963                  
       426.000         363.000  
  25251355.579    25251358.911    28336651.189    22233790.084                  
       627.000         578.000  
  20612516.689    20612516.611     2452512.054     2061839.202                  
       398.000         266.000  
  22988372.550    22988377.155      890108.305      692305.304                  
       312.000         173.000  
  21442863.806    21442870.904     8682684.073     6753201.553                  
       769.000         530.000  
  22317310.626    22317317.114    13079878.678    10173238.586                  
       255.000         391.000  
 22 01 20 01 42 30.0000000  0 10G01G08G16G21G26G27G31R17R18R19      
  28086225.440    28086235.859    21929445.242    17236957.983                  
        91.000          79.000  
  27590265.141    27590274.729    36601813.451    28673624.309                  
       385.000         406.000  
  25147722.468                    20026239.891    15604857.053    25147722.249  
       360.000         107.000  
  26880582.765                     7073333.165     5511656.104    26880584.183  
       194.000          28.000  
  21366150.323    21366153.696     4281324.835     3488280.587                  
       433.000         370.000  
  25459400.723    25459404.096    29429932.309    23085696.651                  
       599.000         568.000  
  20698530.354    20698530.190     2904517.026     2414050.692                  
       419.000         281.000  
  23048458.582    23048464.068     1211640.391      942385.570                  
       311.000         175.000  
  21620835.772    21620842.397     9632708.980     7492109.485                  
       765.000         530.000  
  22505745.996    22505752.014    14087877.990    10957237.679                  
       257.000         393.000  
 22 01 20 01 43 00.0000000  0 11G01G08G16G18G21G26G27G31R17R18R19   
  28110599.931    28110611.032    22057539.490    17336770.117                  
        65.000          65.000  
  27784663.782    27784676.700    37623335.942    29469603.338                  
       368.000         389.000  
  25304098.902                    20848002.157    16245190.674    25304099.056  
       349.000          97.000  
  22094801.331    22094801.257      350299.371      422071.329                  
       235.000         218.000  
  26956325.846                     7471360.254     5821805.148    26956328.141  
       189.000          26.000  
  21465833.107    21465836.720     4805159.847     3896463.602                  
       441.000         376.000  
  25667698.361    25667702.066    30524540.435    23938637.118                  
       569.000         554.000  
  20790293.240    20790292.667     3386732.210     2789802.627                  
       448.000         289.000  
  23110350.448    23110355.629     1542831.274     1199978.249                  
       310.000         179.000  
  21802051.001    21802057.952    10600047.397     8244483.547                  
       755.000         531.000  
  22697521.470    22697527.945    15113747.649    11755135.930                  
       259.000         391.000  
 22 01 20 01 43 30.0000000  0 11G01G08G16G18G21G26G27G31R17R18R19   
  28134819.939    28134829.956    22184795.984    17435929.581                  
        72.000          73.000  
  27977929.130    27977944.078    38638914.701    30260954.123                  
       355.000         374.000  
  25461345.112                    21674332.434    16889083.702    25461345.187  
       341.000          96.000  
  22154394.041    22154394.606      663464.984      666096.360                  
       242.000         224.000  
  27033770.363                     7878322.490     6138915.824    27033772.613  
       185.000          26.000  
  21570481.025    21570484.157     5355086.411     4324977.633                  
       450.000         384.000  
  25876044.630    25876048.304    31619402.767    24791775.425                  
       544.000         534.000  
  20887632.518    20887632.417     3898253.702     3188390.587                  
       468.000         299.000  
  23173927.447    23173932.123     1883044.015     1464587.861                  
       308.000         183.000  
  21986221.205    21986228.024    11583159.019     9009125.639                  
       742.000         528.000  
  22892364.972    22892371.902    16156026.855    12565797.103                  
       257.000         388.000  
 22 01 20 01 44 00.0000000  0 11G01G08G16G18G21G26G27G31R17R18R19   
  28158904.714    28158913.524    22311358.532    17534548.250                  
        58.000          55.000  
  28169901.994    28169917.412    39647735.561    31047047.202                  
       341.000         360.000  
  25619323.678                    22504512.249    17535976.187    25619324.142  
       330.000          95.000  
  22218958.509    22218959.299     1002752.516      930476.055                  
       245.000         231.000  
  27112865.829                     8293954.762     6462781.239    27112868.736  
       186.000          24.000  
  21679949.422    21679952.607     5930346.586     4773232.075                  
       455.000         391.000  
  26084240.259    26084244.713    32713472.613    25644295.838                  
       524.000         522.000  
  20990370.925    20990370.632     4438145.361     3609085.151                  
       489.000         311.000  
  23239071.156    23239076.903     2231645.246     1735721.765                  
       307.000         186.000  
  22173061.659    22173068.693    12580525.536     9784854.798                  
       732.000         529.000  
  23090005.614    23090011.781    17213266.406    13388093.990                  
       256.000         391.000  
 22 01 20 01 44 30.0000000  0 10G08G16G18G21G26G27G31R17R18R19      
  28360430.329    28360444.956    40648989.401    31827250.058                  
       329.000         346.000  
  25777900.322                    23337834.158    18185316.807    25777901.334  
       322.000          96.000  
  22288337.501    22288338.871     1367341.713     1214571.351                  
       250.000         236.000  
  27193557.946                     8717976.735     6793182.784    27193561.793  
       184.000          28.000  
  21794089.814    21794093.145     6530157.352     5240616.816                  
       466.000         394.000  
  26292091.243    26292096.490    33805729.171    26495402.700                  
       505.000         506.000  
  21098323.837    21098323.778     5005442.151     4051134.358                  
       508.000         320.000  
  23305666.070    23305671.725     2588005.390     2012890.366                  
       310.000         190.000  
  22362293.268    22362300.620    13590653.416    10570509.355                  
       726.000         525.000  
  23290174.060    23290180.377    18284030.475    14220909.800                  
       253.000         387.000  
 22 01 20 01 45 00.0000000  0 10G08G16G18G21G26G27G31R17R18R19      
  28549366.314    28549378.486    41641887.993    32600946.211                  
       314.000         334.000  
  25936942.916                    24173602.974    18836563.909    25936943.918  
       314.000          91.000  
  22362369.295    22362370.756     1756381.426     1517719.067                  
       254.000         245.000  
  27275792.207                     9150095.954     7129892.983    27275798.717  
       181.000          26.000  
  21912748.762    21912752.138     7153713.288     5726504.382                  
       469.000         402.000  
  26499408.757    26499414.274    34895177.661    27344320.591                  
       491.000         494.000  
  21211303.896    21211303.784     5599154.691     4513767.347                  
       519.000         328.000  
  23373594.770    23373600.017     2951500.877     2295608.727                  
       309.000         190.000  
  22553640.139    22553647.373    14612075.054    11364947.940                  
       727.000         519.000  
  23492605.974    23492612.412    19366899.323    15063140.330                  
       254.000         380.000  
 22 01 20 01 45 30.0000000  0  9G16G18G21G26G27G31R17R18R19         
  26096321.204                    25011135.977    19489185.500    26096323.076  
       312.000          89.000  
  22440886.943    22440887.823     2168992.778     1839234.228                  
       263.000         251.000  
  27359509.127                     9590005.170     7472672.888    27359518.003  
       182.000          25.000  
  22035769.082    22035772.308     7800188.711     6230251.298                  
       473.000         409.000  
  26706008.427    26706014.958    35980848.957    28190293.879                  
       480.000         491.000  
  21329117.911    21329117.814     6218270.983     4996195.461                  
       532.000         339.000  
  23442740.996    23442746.817     3321514.269     2583396.545                  
       305.000         191.000  
  22746833.479    22746840.588    15643351.181    12167051.120                  
       730.000         510.000  
  23697037.983    23697045.378    20460471.578    15913695.655                  
       252.000         370.000  
 22 01 20 01 46 00.0000000  0  9G16G18G21G26G27G31R17R18R19         
  26255908.165                    25849762.068    20142658.519    26255909.841  
       307.000          87.000  
  22523718.769    22523719.024     2604272.811     2178413.330                  
       271.000         258.000  
  27444647.471                    10037384.525     7821273.454    27444656.232  
       182.000          22.000  
  22162990.220    22162993.737     8468740.285     6751200.406                  
       476.000         416.000  
  26911711.677    26911720.027    37061798.542    29032585.534                  
       461.000         484.000  
  21451570.120    21451570.353     6861762.120     5497616.987                  
       542.000         348.000  
  23512990.666    23512997.013     3697435.592     2875779.376                  
       303.000         190.000  
  22941608.378    22941615.929    16683071.933    12975722.313                  
       732.000         500.000  
  23903213.541    23903220.301    21563365.403    16771500.911                  
       246.000         362.000  
 22 01 20 01 46 30.0000000  0  9G16G18G21G26G27G31R17R18R19         
  26415577.375                    26688823.242    20796470.276    26415579.728  
       298.000          83.000  
  22610687.103    22610688.134     3061297.315     2534536.219                  
       277.000         264.000  
  27531143.761                    10491899.987     8175434.152    27531155.609  
       180.000          23.000  
  22294248.950    22294252.741     9158509.731     7288682.942                  
       475.000         421.000  
  27116343.652    27116354.571    38137107.174    29870478.033                  
       444.000         475.000  
  21578462.525    21578462.449     7528584.161     6017218.463                  
       550.000         353.000  
  23584231.679    23584238.745     4078664.502     3172290.397                  
       301.000         192.000  
  23137707.278    23137714.361    17729858.829    13789889.427                  
       728.000         497.000  
  24110876.949    24110884.375    22674219.751    17635497.516                  
       243.000         359.000  
 22 01 20 01 47 00.0000000  0  9G16G18G21G26G27G31R17R18R19         
  26575207.482                    27527673.597    21450117.198    26575210.540  
       293.000          86.000  
  22701615.012    22701615.780     3539123.581     2906868.144                  
       280.000         271.000  
  27618933.758                    10953204.155     8534883.983    27618946.462  
       175.000          20.000  
  22429379.693    22429383.837     9868625.625     7842019.804                  
       465.000         422.000  
  27319735.253    27319749.952    39205883.582    30703276.955                  
       423.000         461.000  
  21709593.382    21709593.555     8217682.002     6554177.683                  
       562.000         358.000  
  23656355.718    23656361.725     4464608.906     3472468.830                  
       300.000         190.000  
  23334877.357    23334885.307    18782363.979    14608503.952                  
       722.000         483.000  
  24319778.201    24319785.769    23791696.034    18504644.223                  
       237.000         351.000  
 22 01 20 01 47 30.0000000  0  9G16G18G21G26G27G31R17R18R19         
  26734677.551                    28365679.128    22103104.783    26734681.421  
       289.000          76.000  
  22796318.561    22796319.561     4036794.212     3294663.202                  
       283.000         277.000  
  27707947.098                    11420937.705     8899342.721    27707963.090  
       175.000          25.000  
  22568214.571    22568218.457    10598205.797     8410523.564                  
       462.000         425.000  
  27521720.553    27521737.666    40267270.904    31530319.494                  
       407.000         448.000  
  21844760.923    21844761.507     8927992.038     7107665.819                  
       571.000         367.000  
  23729252.573    23729258.319     4854688.172     3775863.047                  
       301.000         189.000  
  23532872.796    23532880.515    19839273.313    15430543.800                  
       707.000         478.000  
  24529671.535    24529680.038    24914478.663    19377917.631                  
       232.000         344.000  
 22 01 20 01 48 00.0000000  0 10G16G18G21G26G27G31R15R17R18R19      
  26893870.037                    29202218.234    22754947.674    26893875.738  
       287.000          78.000  
  22894613.893    22894615.099     4553339.055     3697165.150                  
       292.000         278.000  
  27798114.919                    11894729.743     9268520.778    27798130.942  
       174.000          21.000  
  22710583.738    22710587.539    11346359.474     8993499.975                  
       455.000         422.000  
  27722136.429    27722155.241    41320436.351    32350961.095                  
       391.000         425.000  
  21983762.134    21983762.460     9658445.832     7676850.256                  
       580.000         369.000  
  19838860.339    19838866.557      231650.605      180178.990                  
       852.000         395.000  
  23802815.102    23802822.314     5248331.915     4082029.058                  
       298.000         189.000  
  23731453.324    23731461.051    20899304.638    16255011.420                  
       688.000         462.000  
  24740316.406    24740325.645    26041276.226    20254312.830                  
       228.000         332.000  
 22 01 20 01 48 30.0000000  0 10G16G18G21G26G27G31R15R17R18R19      
  27052669.309                    30036681.707    23405170.415    27052676.490  
       283.000          71.000  
  22996314.949    22996316.291     5087779.413     4113611.564                  
       291.000         288.000  
  27889362.804                    12374200.433     9642122.952    27889383.935  
       177.000          23.000  
  22856316.965    22856321.159    12112189.592     9590250.111                  
       452.000         431.000  
  27920828.218    27920847.737    42364559.333    33164560.636                  
       384.000         416.000  
  22126392.592    22126392.942    10407972.296     8260896.368                  
       590.000         381.000  
  19973659.346    19973665.124      951974.622      740430.654                  
       881.000         419.000  
  23876939.571    23876946.604     5644983.918     4390534.795                  
       298.000         188.000  
  23930384.848    23930393.478    21961210.229    17080936.309                  
       665.000         458.000  
  24951477.015    24951486.730    27170821.944    21132844.148                  
       224.000         329.000  
 22 01 20 01 49 00.0000000  0 10G16G18G21G26G27G31R15R17R18R19      
  27210963.107                    30868475.146    24053309.806    27210972.745  
       278.000          66.000  
  23101234.382    23101235.475     5639129.954     4543234.754                  
       293.000         291.000  
  27981619.371                    12858958.227    10019844.161    27981641.158  
       174.000          22.000  
  23005242.301    23005246.280    12894794.697    10200071.635                  
       443.000         430.000  
  28117645.581    28117664.491    43398848.882    33970502.776                  
       370.000         395.000  
  22272448.581    22272449.550    11175500.713     8858969.981                  
       597.000         390.000  
  20114095.556    20114101.352     1702420.819     1324110.658                  
       900.000         443.000  
  23951525.882    23951532.810     6044099.284     4700956.436                  
       298.000         187.000  
  24129441.197    24129449.788    23023776.120    17907374.313                  
       640.000         451.000  
  25162920.116    25162931.227    28301875.014    22012546.016                  
       220.000         320.000  
 22 01 20 01 49 30.0000000  0 11G10G16G18G21G26G27G31R15R17R18R19   
  20104182.117    20104185.288      118913.256      245531.037                  
       351.000         248.000  
  27368639.449                    31697020.157    24698916.805    27368652.301  
       274.000          58.000  
  23209182.938    23209184.486     6206400.841     4985263.350                  
       292.000         300.000  
  28074803.179                    13348603.463    10401374.444    28074829.765  
       176.000          29.000  
  23157187.444    23157192.126    13693269.997    10822259.489                  
       441.000         435.000  
  28312442.351    28312460.178    44422529.482    34768180.031                  
       355.000         384.000  
  22421727.274    22421728.009    11959962.566     9470238.437                  
       597.000         398.000  
  20259930.074    20259936.440     2481716.241     1930228.952                  
       930.000         466.000  
  24026472.167    24026480.204     6445146.228     5012880.144                  
       294.000         185.000  
  24328400.159    24328409.136    24085822.282    18733407.598                  
       622.000         442.000  
  25374419.559    25374432.290    29433219.986    22892472.640                  
       216.000         310.000  
 22 01 20 01 50 00.0000000  0 12G10G16G18G21G23G26G27G31R15R17R18R19
  20127630.372    20127633.018      242134.958      341547.842                  
       375.000         261.000  
  27525588.609                    32521755.872    25341558.419    27525604.348  
       269.000          60.000  
  23319972.401    23319973.986     6788601.293     5438925.549                  
       289.000         309.000  
  28168838.331                    13842728.887    10786398.816    28168867.476  
       180.000          25.000  
  19809288.612    19809289.497      101263.986      230508.110                  
       229.000         273.000  
  23311980.510    23311984.897    14506709.950    11456108.147                  
       441.000         441.000  
  28505074.382    28505089.666    45434868.749    35557028.389                  
       344.000         374.000  
  22574025.969    22574026.243    12760294.587    10093873.297                  
       593.000         409.000  
  20410921.696    20410928.385     3288568.466     2557780.353                  
       952.000         486.000  
  24101682.172    24101689.716     6847607.551     5325903.925                  
       292.000         185.000  
  24527047.296    24527057.942    25146202.738    19558144.662                  
       606.000         429.000  
  25585753.042    25585768.233    30563669.571    23771700.295                  
       210.000         296.000  
 22 01 20 01 50 30.0000000  0 12G10G16G18G21G23G26G27G31R15R17R18R19
  20160187.407    20160189.817      413221.218      474861.690                  
       399.000         276.000  
  27681704.146                    33342130.519    25980807.046    27681720.162  
       268.000          59.000  
  23433414.171    23433415.950     7384740.069     5903448.551                  
       291.000         312.000  
  28263643.207                    14340925.269    11174603.542    28263671.568  
       180.000          26.000  
  19841444.091    19841445.341      270243.540      362180.284                  
       243.000         290.000  
  23469448.699    23469453.463    15334208.916    12100911.820                  
       444.000         445.000  
  28695508.344    28695522.274    46435632.530    36336850.613                  
       183.000         201.000  
  22729143.041    22729144.154    13575439.524    10729050.659                  
       587.000         415.000  
  20566825.882    20566832.253     4121670.936     3205748.553                  
       972.000         500.000  
  24177063.418    24177072.550     7250979.382     5639635.536                  
       291.000         179.000  
  24725175.179    24725186.267    26203804.730    20380719.845                  
       591.000         419.000  
  25796703.838    25796722.058    31692062.667    24649326.176                  
       201.000         284.000  
